municipio_entidad,departamento_entidad,codigo_municipio_ent,latitud,longitud,oferentes_prom,ind_prom_oferentes,perc_contr_cerrada_num,perc_contr_cerrada_val,HHI_cant,HHI_val,ID_cant,ID_val,ofertas_prom,ind_prom_ofertas,ganadoras,IC4K_cant,IC4K_val,perc_tiempo_adiciones,perc_valor_adiciones,ind_valor_adiciones,ind_riesgo_corrupcion
Abejorral,Antioquia,5002,5.766288847875,-75.46568902515,NaN,NaN,0,0,9.183673469387754,56.140842227784795,2.197802197802198,56.14084210587272,NaN,NaN,14.285714285714292,100,85.20312573625345,14.285714285714285,1.6660336734693877,0.8270238087049138,25.799084516802825
Abrego,Norte de Santander,54003,7.961907205955001,-73.16759074219999,NaN,NaN,0,0,8.501586076817558,16.487905940562367,3.6823361823361824,16.487905564811694,NaN,NaN,22.91666666666667,74.07407407407408,71.84083565323367,3.125,0.48615820996574827,0.24133030492821186,18.3050811916895
Abriaquí,Antioquia,5004,6.653143084985,-76.0770481838,NaN,NaN,0,0,9.375,11.12262911955538,3.3333333333333335,11.122628575726273,NaN,NaN,18.75,100,58.439306864160955,0,0,0,18.274569937913608
Acacias,Meta,50006,3.9882049999999998,-73.765802,32.833333333333336,96.06786427145708,0,0,47.229986959982384,54.80656453579883,17.125771604938272,49.1573833914456,9,88.60759493670886,15.864197530864198,89.96913580246914,95.05771323409934,12.962962962962964,3.3932135728542914,1.6844007762023951,31.387029498813344
Acandí,Chocó,27006,8.4879568591975,-77.261832437675,17,97.96407185628743,0,0,59.183673469387756,67.84827424949644,4.761904761904762,35.69654835267711,6,92.40506329113924,7.142857142857146,100,96.82642098799958,0,0,0,33.957080332738265
Acevedo,Huila,41006,1.781451326058,-75.93934421952,NaN,NaN,0,0,72.17687074829932,77.8429657567827,43.255350920856145,68.34709266788356,NaN,NaN,25.23809523809524,90.47619047619048,95.70826176038244,6.904761904761904,11.713058144860401,5.814395058637782,34.799819005603425
Achí,Bolívar,13006,8.578533003649445,-74.51769117621112,NaN,NaN,0,0,45.62862181909801,53.72314125389288,6.5476190476190474,30.584710621329883,NaN,NaN,15.873015873015879,100,95.95562446465378,0,0,0,25.02063102613836
Agrado,Huila,41013,2.2240625972133334,-75.7258356464,NaN,NaN,0,0,66.48530762167125,74.85919260172611,50.60782241014799,68.57399037744061,NaN,NaN,36.36363636363637,88.06818181818181,87.15698034473448,3.1818181818181817,2.440402092745585,1.2114224734191605,34.56437881758801
Agua de Dios,Cundinamarca,25001,4.37531201654,-74.6692177783,NaN,NaN,0,0,54.28593413357956,67.89619431753945,14.795321637426898,51.84429099479044,NaN,NaN,17.64132553606238,93.85964912280701,96.17901141075595,11.842105263157894,6.101550669905498,3.0288269405282113,29.39458840793613
Aguachica,Cesar,20011,8.191252773696364,-73.66033232908183,23,97.24550898203593,0,0,65.72378145157845,70.68477596884382,4.718137254901961,34.04074413864689,5.5,93.0379746835443,6.034858387799564,100,89.61045602899297,6.442577030812324,3.099448774859031,1.538575102946017,29.54718851444707
Aguada,Santander,68013,6.16223753324,-73.5232368382,NaN,NaN,0,0,28.000000000000004,37.5322062011572,10,37.53220538656756,NaN,NaN,20,100,100,0,0,0,26.866564200105202
Aguadas,Caldas,17013,5.628918624415,-75.48925278978,NaN,NaN,0,0,25.487407407407407,37.91672269115451,2.984126984126984,37.916720027203915,NaN,NaN,17.555555555555554,86.66666666666667,85.48262712075122,5.333333333333333,2.377777619047619,1.1803355082631806,24.089504807846044
Aguazul,Casanare,85010,5.146935901302,-72.59979023867,NaN,NaN,0,0,43.39107087878587,48.33959999596983,4.231504231504232,31.119463050862034,NaN,NaN,18.550368550368553,86.48648648648648,81.38970390626157,2.272727272727273,0.580952380952381,0.28838639843989583,23.750352404130275
Agustín Codazzi,Cesar,20013,9.941778567106,-73.24338540136,NaN,NaN,0,0,69.9074074074074,80.55095686029809,1.5151515151515151,41.652870561038135,NaN,NaN,2.777777777777781,100,90.78174793521033,0,0,0,24.303191684448837
Aipe,Huila,41016,3.2544124081066665,-75.38393217305,NaN,NaN,0,0,13.533333333333333,21.611810107466745,0.5555555555555556,21.611808214283283,NaN,NaN,5.333333333333333,100,97.58814987806156,0,0,0,21.69292565525005
Albán,Cundinamarca,25019,4.9009268954575,-74.446230988,NaN,NaN,0,0,5.469387755102042,13.09837756115511,2.689075630252101,13.098377447187422,NaN,NaN,31.42857142857143,51.42857142857142,68.64913310770164,0,0,0,15.705737901032158
Albán,Nariño,52019,1.4833111205125,-77.07567641215,NaN,NaN,0,0,76.36734693877551,78.27459439028878,2.689075630252101,13.098377447187422,NaN,NaN,7.857142857142858,51.42857142857142,68.64913310770164,0,0,0,22.67643447525804
Albania,Caquetá,18029,1.2071806084975,-75.89646709515,NaN,NaN,0,0,7.4792243767313,38.68424736076034,2.3391812865497075,38.68424734904213,NaN,NaN,15.789473684210535,100,95.7632341354288,5.263157894736842,3.8476082377304626,1.9099635678706566,24.643280958547148
Albania,La Guajira,44035,11.1982974563,-72.51536387868333,NaN,NaN,0,0,69.15974145891043,79.56141578692011,51.16959064327485,69.34212367452106,NaN,NaN,27.485380116959067,100,97.8816170677144,1.7543859649122806,1.2825360792434874,0.6366545226235522,33.71947749123289
Albania,Santander,68020,5.79602448684,-73.82117910939999,NaN,NaN,0,0,53.73961218836565,69.34212368038017,2.3391812865497075,38.68424734904213,NaN,NaN,7.894736842105267,100,95.7632341354288,2.631578947368421,1.9238041188652313,0.9549817839353283,24.821640479273576
Alcalá,Valle del Cauca,76020,4.67421617044,-75.76285316513334,NaN,NaN,0,0,5.365484156040903,24.09645453021095,4.290091930541369,24.096454348714207,NaN,NaN,67.41573033707866,32.58426966292135,65.37411775899838,14.606741573033707,11.362675361684174,5.640464058045461,20.97600266986863
Aldana,Nariño,52022,0.8715145951226666,-77.68937451833334,NaN,NaN,0,0,22.279983196807393,29.667025364733885,1.4492753623188406,29.667021320689337,NaN,NaN,10.144927536231885,82.6086956521739,91.95126827578115,4.3478260869565215,1.54857864558294,0.7687188019928289,22.251481720234487
Alejandría,Antioquia,5021,6.37606567589,-75.1413329006,NaN,NaN,0,0,55.37190082644628,57.658632752449314,1.8181818181818181,15.317265049433901,NaN,NaN,4.545454545454547,100,81.17530630465885,4.545454545454546,1.4887266176875609,0.7390080867431958,23.031447403241437
Algarrobo,Magdalena,47030,10.267873760083333,-74.05636350776666,NaN,NaN,0,0,59.50413223140496,63.97724085278468,10.909090909090908,27.954481483650405,NaN,NaN,22.72727272727273,81.81818181818181,93.87651959834943,0,0,0,25.182776543115768
Algeciras,Huila,41020,2.521127149558,-75.3081767049,NaN,NaN,0,0,50.774986828427814,65.66098688616093,2.2320261437908497,48.49147862034528,NaN,NaN,11.87363834422658,83.33333333333333,93.33508221309097,8.660130718954248,4.493270553862303,2.2304721604206628,26.178222419896603
Almaguer,Cauca,19022,1.90272669533,-76.85635682905,NaN,NaN,0,0,14.186851211072666,42.62062346864189,8.823529411764707,42.62062336885854,NaN,NaN,35.294117647058826,100,93.4439322319926,0,0,0,26.76082308823006
Almeida,Boyacá,15022,4.97085650862,-73.3789331048,NaN,NaN,0,0,100,100,NaN,NaN,NaN,NaN,0,NaN,NaN,50,12.06431032851043,5.988757632074388,33.5066334950731
Alpujarra,Tolima,73024,3.453680909345,-74.887006646275,NaN,NaN,0,0,16.666666666666664,44.512147512141745,0,44.51214722457399,NaN,NaN,0,100,95.36163096042407,16.666666666666664,8.333333333333332,4.136690141555881,25.97064866188985
Altamira,Huila,41026,2.0827961801,-75.75992428456667,NaN,NaN,0,0,15.976331360946745,23.187858952342093,8.974358974358974,23.187858513540487,NaN,NaN,30.769230769230774,100,84.64420559776991,0,0,0,23.959271423149865
Altos del Rosario,Bolívar,13030,8.765764253168333,-74.21750319038333,NaN,NaN,0,0,38.88888888888889,60.02724017137392,26.666666666666668,60.02724002954633,NaN,NaN,50,100,100,0,0,0,34.14389052062995
Alvarado,Tolima,73026,4.60600604814,-74.9734482337,NaN,NaN,0,0,4.164413196322337,17.84357606330004,1.8826135105204873,17.843575538452885,NaN,NaN,30.232558139534888,27.906976744186046,64.26718795916541,0,0,0,13.299756873911747
Amagá,Antioquia,5030,6.05166555862,-75.70087402622222,NaN,NaN,0,0,23.279778393351798,32.63892389057455,12.017543859649123,32.63892312177158,NaN,NaN,33.684210526315795,84.21052631578947,95.35683571092233,7.894736842105263,9.802694280340019,4.866085054820254,27.613757715806237
Amalfi,Antioquia,5031,6.856991327685,-75.00448700435001,NaN,NaN,0,0,40.096528925619836,42.48254961390832,35.92929292929293,42.48254896553704,NaN,NaN,42.090909090909086,81.33333333333333,74.0102443725402,2.6666666666666665,1.1111773432019147,0.5515915633372341,29.115663076255412
Ambalema,Tolima,73030,4.813941233382,-74.80609955272,NaN,NaN,0,0,47.09115646258503,55.4607802360279,0.17598343685300208,44.32597305586305,NaN,NaN,4.2857142857142865,85,85.44819009099484,10,5,2.482014084933529,25.074454899230822
Anapoima,Cundinamarca,25035,4.551515659645,-74.50656378135,NaN,NaN,0,0,14.878892733564014,65.7244859058754,9.558823529411764,65.7244858653339,NaN,NaN,41.17647058823529,64.70588235294117,89.51162193793014,5.88235294117647,0,0,26.494411817194024
Ancuyá,Nariño,52036,1.237758602625,-77.52823346935,NaN,NaN,0,0,76.0633270321361,78.57129316846941,40.869565217391305,65.7140667190961,NaN,NaN,16.847826086956523,92.17391304347827,91.66627123013605,0,0,0,30.913730883585504
Andalucía,Valle del Cauca,76036,4.17300466582,-76.20023531845,NaN,NaN,0,0,11.694101508916322,23.26791550703299,1.566951566951567,23.267914703339287,NaN,NaN,14.814814814814817,75.92592592592592,82.15894356296978,0,0,0,19.0389684442374
Andes,Antioquia,5034,5.655447628955,-75.8931110707875,NaN,NaN,0,0,16.00891759621918,37.56648739049771,1.081543728602552,37.5664867396419,NaN,NaN,13.87686387686388,70.77922077922078,80.12273181365329,1.2987012987012987,0.17276216610560513,0.08575962592354758,20.09027166143526
Angelópolis,Antioquia,5036,6.103151270815,-75.7183347822,NaN,NaN,0,0,8.333333333333332,23.237208370048553,0,23.237208105300464,NaN,NaN,0,100,76.84288176926847,25,6.016307101641993,2.986511793112209,22.037840215218598
Angostura,Antioquia,5038,6.849074779175,-75.41128746955,NaN,NaN,0,0,46.77777777777778,48.55184911626755,1.0526315789473684,22.827768291337808,NaN,NaN,5,100,83.02511748508059,0,0.3819738971868789,0.18961291857895704,22.6017920987118
Anolaima,Cundinamarca,25040,4.790488861092,-74.47693011742,NaN,NaN,0,0,31.213017751479292,45.30715284494178,2.564102564102564,45.307150922892944,NaN,NaN,11.538461538461533,100,89.5806774294532,0,0,0,25.47303746622167
Anorí,Antioquia,5040,7.136182878840001,-75.09685102853334,NaN,NaN,0,0,18.75,22.117649621435078,7.142857142857142,22.11764867927415,NaN,NaN,25,100,84.75748689863659,0,0,0,23.433453969357164
Anserma,Caldas,17042,5.231950980753333,-75.7865359071,7,99.16167664670658,0,0,59.93333333333333,67.9116135726588,1.1111111111111112,46.51935202945771,1,98.73417721518987,2,100,96.15373334859639,17.77777777777778,2.75,1.3651077467134412,29.381879709139966
Ansermanuevo,Valle del Cauca,76041,4.805984971828333,-76.00601059416667,NaN,NaN,0,0,7.199999999999999,17.972268044679556,3.3333333333333335,17.972267870851752,NaN,NaN,32,56.00000000000001,77.407609323261525,32,16.273484807182456,8.078203700475731,22.75135447353933
Anza,Antioquia,5044,6.32475385246,-75.89324350655001,NaN,NaN,0,0,14.143598615916956,15.175167703703577,0.17825311942959002,15.175166797939099,NaN,NaN,2.941176470588239,100,62.09389223645262,2.941176470588235,0.7352941176470588,0.3650020713137543,18.052141891421822
Anzoátegui,Tolima,73043,4.6232456878375,-75.1000237675,NaN,NaN,0,0,32.14285714285714,33.694026161580105,0,33.69402470127196,NaN,NaN,0,100,88.49726778935707,7.142857142857142,0,0,23.77063711242286
Apartadó,Antioquia,5045,7.8566349132575,-76.658426556475,14,98.32335329341318,0,0,51.111111111111114,63.544503795304166,0.38314176245210724,51.39267109786139,1,98.73417721518987,3.333333333333332,100,90.93989489097778,7.777777777777778,2.677644100638608,1.3291900744448395,31.149502505482815
Apía,Risaralda,66045,5.12363761109,-75.95100993273333,NaN,NaN,0,0,6.094182825484763,8.712130015884854,3.556187766714083,8.712129522340145,NaN,NaN,39.473684210526315,63.1578947368421,51.41908929161902,0,0,0,15.67392444064283
Apulo,Cundinamarca,25599,4.52034721895,-74.5938045381,NaN,NaN,0,0,74.07407407407408,73.65671309224206,6.666666666666667,20.97013862496013,NaN,NaN,5.555555555555553,100,85.48987072280349,33.333333333333336,16.666666666666668,8.273380283111765,31.587674521906706
Aquitania,Boyacá,15047,5.440381887863333,-72.90189281111667,NaN,NaN,0,0,72.66666666666667,74.6429190588752,8.88888888888889,23.928756586371897,NaN,NaN,10,100,83.13478777363866,0,0.7407407407407406,0.3677057903605228,24.765993134316876
Aracataca,Magdalena,47053,10.586474132557143,-74.1560727931,NaN,NaN,0,0,30.555555555555557,58.950406056132266,0,58.95040568345691,NaN,NaN,0,100,93.22254464837317,0,0,0,25.702591478187365
Aranzazu,Caldas,17050,5.26231389527,-75.50927895016666,NaN,NaN,0,0,55.88375335850083,62.78318594894738,5.881895881895882,25.566371457209634,NaN,NaN,9.595959595959595,100,71.58169661321021,6.902356902356903,0.43459133577329423,0.21573236331587858,23.822488704764268
Aratoca,Santander,68051,6.693988,-73.018938,NaN,NaN,0,0,28.00925925925926,27.360717966143646,12.499999999999998,27.360716191656408,NaN,NaN,23.611111111111107,100,88.94988359087495,11.11111111111111,1.8518518518518516,0.9192644759013071,26.755745396932113
Arauca,Arauca,81001,7.033128520063333,-70.68683860481667,94.94444444444444,88.62940785096474,0,0,55.53440548665114,64.52141664272474,13.676841302674443,50.32998286767983,6.236111111111111,92.10618846694796,10.055451583835865,95.34206695778748,91.90553899877841,0.048520135856380396,0.014495261814670748,0.007195488797762389,34.67269458699608
Arauquita,Arauca,81065,6.864342253325926,-71.38625023097038,NaN,NaN,0,0,45.59778180172024,47.43086324897728,4.10422448350293,29.90781668904173,NaN,NaN,14.042553191489361,76.59574468085107,87.0466648249813,0.5319148936170213,0,0,22.92391714798231
Arbeláez,Cundinamarca,25053,4.253411172285,-74.43057349845,NaN,NaN,0,0,10.9375,34.7703086974133,5,34.77030836476877,NaN,NaN,31.25,56.25,92.1126403822096,0,0,0,20.93822264360208
Arboleda,Nariño,52051,1.47208192572,-77.10982813824,NaN,NaN,0,0,29.739583333333332,37.951593791438256,0.8928571428571428,37.951592680340596,NaN,NaN,3.125,100,94.13106624919114,0,0,0,24.167281865165442
Arboledas,Norte de Santander,54051,7.6487323756966665,-72.7969303921,NaN,NaN,0,0,15.625,18.710072991637865,3.571428571428571,18.71007189378819,NaN,NaN,12.5,100,100,0,0,0,22.764227414824223
Arboletes,Antioquia,5051,8.619195552232222,-76.40951294226667,NaN,NaN,0,0,25.395061728395063,34.19349762983972,15.65359477124183,34.19349698294242,NaN,NaN,25.555555555555557,100,86.30203733523658,0,1.1131922967093069,0.5525917919344008,26.25141191899204
Arcabuco,Boyacá,15051,5.75518426904,-73.4381847561,NaN,NaN,0,0,27.727098400175322,36.07795134300799,13.919413919413918,36.07794973228427,NaN,NaN,22.008547008547012,100,91.46250944544421,0,1.2816204852495174,0.6362000191857293,26.64666732918397
Arenal,Bolívar,13042,8.437669701136,-73.9535816027,NaN,NaN,0,0,17.309458218549125,23.25796809548949,5.151515151515151,23.257966415295808,NaN,NaN,17.424242424242415,100,84.35662327876679,0,0,0,22.49998246986936
Argelia,Antioquia,5055,5.7306718788,-75.1417414563,NaN,NaN,0,0,52.85493827160494,56.56823196690951,3.015873015873016,13.136463854898167,NaN,NaN,16.66666666666667,55.55555555555556,68.97610328177008,2.7777777777777777,0,0,20.92194369177802
Argelia,Cauca,19050,2.35091429435125,-77.2445591179375,NaN,NaN,0,0,5.709876543209877,13.136463933819023,3.015873015873016,13.136463854898167,NaN,NaN,33.33333333333334,55.55555555555556,68.97610328177008,5.555555555555555,0,0,16.84388738355604
Argelia,Valle del Cauca,76054,4.7286632609,-76.14059369216668,NaN,NaN,0,0,5.709876543209877,13.136463933819023,3.015873015873016,13.136463854898167,NaN,NaN,33.33333333333334,55.55555555555556,68.97610328177008,5.555555555555555,0,0,16.84388738355604
Ariguaní,Magdalena,47058,9.88216622689,-74.08564889971667,NaN,NaN,0,0,7.4792243767313,18.659065434767207,2.3391812865497075,18.659065379757937,NaN,NaN,21.05263157894737,42.10526315789473,79.59190050516808,15.789473684210526,6.015703537778686,2.986212182310232,17.819877794941622
Arjona,Bolívar,13052,10.1954857905375,-75.3542535361375,NaN,NaN,0,0,68,99.91140485500338,20,99.8228097100037,NaN,NaN,20,100,100,0,0,0,30.4919458959094
Armenia,Antioquia,5059,6.150145845976001,-75.79945317768,NaN,NaN,0,0,54.86111111111111,60.879348434839784,1.5151515151515151,21.758696816246164,NaN,NaN,4.166666666666671,100,87.96265834735624,4.166666666666666,0,0,23.301154346412552
Armenia,Quindío,63001,4.484716031329091,-75.73460831568181,85.5925925925926,89.74939010867155,0,0,57.834068418532006,63.75326026987608,14.146991717805223,46.41786150811865,7.611111111111111,90.36568213783404,9.645481965140332,92.58597946378012,92.58152290469091,9.540281271050501,2.788579924883535,1.3842589301047634,31.789898773873002
Armero,Tolima,73055,5.06027209648,-74.88057085911666,14,98.32335329341318,0,0,52.709514807813484,57.231669379864584,1.9762845849802373,35.84749908294999,5,93.67088607594937,8.695652173913047,100,88.8898365784496,0,0,0,30.810509750059545
Arroyohondo,Bolívar,13062,10.234914694533334,-75.02648653483334,NaN,NaN,0,0,60,67.64767076795431,0,35.29534136149676,NaN,NaN,0,100,96.22629020590607,0,0,0,23.932801442809758
Astrea,Cesar,20032,9.522293876362221,-73.92441464241111,NaN,NaN,0,0,37.694988823370714,43.187717919783914,2.9604955586722763,14.78157656951188,NaN,NaN,21.415770609318994,58.93817204301075,70.808814621962,1.075268817204301,0.5376344086021505,0.2668832349390891,19.78635623899841
Ataco,Tolima,73067,3.382134117131818,-75.58172166055455,NaN,NaN,0,0,64,68.35864082563066,10,36.71728131020031,NaN,NaN,10,100,100,0,0,0,25.896240075057335
Ayapel,Córdoba,23068,8.317555279143637,-75.07920149644545,NaN,NaN,0,0,28.000000000000004,43.25102839823836,10,43.25102837809371,NaN,NaN,20,100,100,0,0,0,27.38645712711258
Bahía Solano,Chocó,27075,6.32780601995375,-77.4066473555125,NaN,NaN,0,0,20,32.61699048287356,0,32.61699030437552,NaN,NaN,0,100,94.70198675496688,0,0,0,22.483543385258223
Bajo Baudó,Chocó,27077,4.929590105455882,-77.29634586820589,NaN,NaN,0,0,14.285714285714285,28.10606109524479,0,28.106061052887288,NaN,NaN,0,100,91.28922671916719,0,0,0,21.243727463647843
Balboa,Cauca,19075,2.0740727120877778,-77.19246258117778,NaN,NaN,0,0,5.612244897959183,12.84633545618725,2.1164021164021163,12.846335305274314,NaN,NaN,25,46.42857142857142,55.78168571409089,0,0,0,13.43502178301917
Balboa,Risaralda,66075,4.927390624552499,-75.96665347555,NaN,NaN,0,0,16.806122448979593,20.853417277082222,6.058201058201059,20.853413048280604,NaN,NaN,22.5,73.21428571428571,77.89084285704544,0,0,0,19.756624486872184
Baranoa,Atlántico,8078,10.794258585849999,-74.9310085652,167.22222222222223,79.9733865602129,0,0,48.888888888888886,61.79871377385858,24,61.79871353242541,3.611111111111111,95.42897327707455,20.000000000000004,100,98.2600450919755,0,0,0,39.0838549552989
Baraya,Huila,41078,3.1413486029533333,-74.99007539446667,NaN,NaN,0,0,20.009669983695957,30.162603313910886,9.054279054279053,30.162601491070344,NaN,NaN,30.043290043290042,90.47619047619047,83.50653005948514,12.727272727272728,4.578286080306596,2.272674107235218,25.711890531424192
Barbacoas,Nariño,52079,1.605859073995238,-78.08697723837619,NaN,NaN,0,0,45.646056524844404,51.813096022566356,0.7313955885384457,32.53833344958319,NaN,NaN,7.965367965367965,87.27272727272728,84.30123786243405,1.298701298701299,0.7821502164759508,0.38826157076542384,22.94522388064349
Barbosa,Antioquia,5079,6.4264430937892305,-75.3725909376077,NaN,NaN,0,0,52.071005917159766,55.168168566735545,0.3076923076923077,10.336337012322074,NaN,NaN,1.9230769230769198,100,52.58644452414365,1.9230769230769231,3.610675039246468,1.7923492607055316,20.9486746405381
Barbosa,Santander,68077,5.935574048164,-73.62748389932,NaN,NaN,0,0,21.825115055884286,28.500692112887585,3.435897435897436,28.500690978580487,NaN,NaN,7.948717948717946,100,84.19548150804789,1.2820512820512822,2.4071166928309786,1.194899507137021,22.79908832213222
Barichara,Santander,68079,6.65630325679,-73.23154925765,NaN,NaN,0,0,18.332409972299168,29.28519733421964,13.014066698277226,29.285196769058345,NaN,NaN,56.578947368421055,77.63157894736841,83.36424045644333,0,0,0,25.29149461609353
Barranca de Upía,Meta,50110,4.601252643095,-72.9964377617,NaN,NaN,0,0,59.333333333333336,76.38321831438455,5,64.57482690157308,NaN,NaN,6.666666666666667,100,100,13.333333333333334,14.841172365749605,7.367199769743357,30.871962768170683
Barrancabermeja,Santander,68081,6.993511421330527,-73.79328272880527,18,97.8443113772455,0,0,67.37865701212921,74.09930467168779,35.01394550525638,61.148956470053726,5,93.67088607594937,16.624472573839665,93.16455696202532,93.9528860218626,0.6329113924050632,0.12349667044728235,0.061304095098509835,31.412131784231313
Barrancas,La Guajira,44078,10.948224277872727,-72.79517756263637,NaN,NaN,0,0,54.08163265306123,58.381969810017885,1.098901098901099,16.763939596427115,NaN,NaN,3.5714285714285694,100,70.86094399158912,0,0,0,21.774086689068433
Barranco de Loba,Bolívar,13074,8.8768668258240009,-74.1754436973,NaN,NaN,0,0,14.8125,22.50386435647871,4.007936507936508,22.503863745852648,NaN,NaN,16.25,100,84.14046683936608,0,0,0,21.974069791252845
Barranquilla,Atlántico,8001,10.9759268186,-74.7952590482,132.1,84.17964071856287,0,0,69.048080879714135,74.26788140735606,14.624361027352112,50.006168149196206,2.9,96.32911392405063,8.27905036744607,95.90157350004277,93.16070894226287,4.907946658092686,2.8924621569094877,1.435826362717313,28.549736460879075
Becerril,Cesar,20045,9.69441327915,-73.2704376299,NaN,NaN,0,0,31.25,36.511230549327465,3.3333333333333335,36.511227734517945,NaN,NaN,15.625,100,91.33289746029487,3.125,1.5625,0.7756294015417279,25.774144613136126
Belalcázar,Caldas,17088,5.000550064754,-75.81458799862,NaN,NaN,0,0,7.9584775086505175,12.309892298051556,2.2058823529411766,12.309891763673468,NaN,NaN,17.64705882352942,100,61.242553969438895,0,0,0,18.30580590478287
Belén,Boyacá,15087,5.98927786058,-72.9116195663,NaN,NaN,0,0,12.5,29.10093610336095,0,29.10093586264916,NaN,NaN,0,100,94.88217565808604,0,0,0,21.49846470558609
Belén,Nariño,52083,1.6100769858650001,-77.0412117545,NaN,NaN,0,0,54.166666666666664,59.79519381506282,0,39.69278922010379,NaN,NaN,0,100,97.44108782904303,0,0,0,24.59902294252347
Belén de Los Andaquies,Caquetá,18094,1.4206634179333333,-75.86138187691667,NaN,NaN,0,0,47.552223503780596,48.600569488850844,11.446078431372548,22.900853720628053,NaN,NaN,26.797385620915033,85.29411764705883,84.41188833760944,0,0,0,24.428930444627913
Belén de Umbría,Risaralda,66088,5.205073983576667,-75.84989248035001,NaN,NaN,0,0,37.750566893424036,47.00007095684078,11.937669376693767,38.16674760506557,NaN,NaN,14.149659863945578,88.4920634920635,91.30683508081144,2.7210884353741496,1.8534010329743027,0.9200334937745145,25.40497600560709
Bello,Antioquia,5088,6.342081572294286,-75.57809790422857,NaN,NaN,0,0,61.0420105848712,66.41321226915997,17.66069105990331,52.5833552031785,NaN,NaN,15.019403594771243,94.67993079584775,94.5333142312487,1.639093137254902,2.404820987371768,1.1937599124800968,28.738455019472788
Belmira,Antioquia,5086,6.6430985540566665,-75.65056502103333,NaN,NaN,0,0,53.80859375,57.72633385871666,4.637096774193548,15.452667587970591,NaN,NaN,18.75,59.375,63.071305335370234,12.5,12.286914603198746,6.0992590211029505,23.837527480709113
Beltrán,Cundinamarca,25086,4.7253585539525,-74.769510877,NaN,NaN,0,0,100,100,NaN,NaN,NaN,NaN,0,NaN,NaN,0,0,0,25
Berbeo,Boyacá,15090,5.22728723002,-73.1270321462,NaN,NaN,0,0,88.88888888888889,87.79816523077803,33.33333333333333,51.19265885964723,NaN,NaN,8.333333333333336,100,100,0,0,0,27.23670188966669
Betania,Antioquia,5091,5.7491237741950005,-75.9809836973,NaN,NaN,0,0,51.8140589569161,53.997376295366735,1.2775842044134729,7.994752306593473,NaN,NaN,10.714285714285715,38.095238095238095,46.80099598479977,0,0.0772056865981577,0.03832512031471824,17.929832810518825
Betéitiva,Boyacá,15092,5.90926519523,-72.83766116749999,NaN,NaN,0,0,33.33333333333333,37.35713043900199,0,37.35712975036811,NaN,NaN,0,100,100,0,0,0,24.60822397930321
Betulia,Antioquia,5093,6.167456286929999,-75.9668815016,NaN,NaN,0,0,10.226835832372164,25.728218282867466,1.8382352941176472,25.728217598285518,NaN,NaN,11.764705882352942,100,83.35930191642717,5.88235294117647,0.8426540349456212,0.4182958366922204,21.82369091099561
Betulia,Santander,68092,7.0606166927575,-73.396696058775,NaN,NaN,0,0,9.342560553633216,21.542919148853013,3.6764705882352944,21.542918979086874,NaN,NaN,23.529411764705884,100,82.29387559332967,11.76470588235294,1.6853080698912424,0.8365916733844408,23.15198575221688
Bituima,Cundinamarca,25095,4.819063717913334,-74.53547799633333,NaN,NaN,0,0,13.580246913580247,19.965351218351934,2.7777777777777777,19.96535061237496,NaN,NaN,11.111111111111114,100,84.17570521613276,0,0,0,21.055472021541256
Boavita,Boyacá,15097,6.33065256287,-72.5849593987,NaN,NaN,0,0,22.222222222222218,42.67032562440428,6.666666666666667,42.67032494173292,NaN,NaN,16.666666666666657,100,96.78488907390992,0,0,0,25.91007002307907
Bochalema,Norte de Santander,54099,7.63554687169,-72.6343821504,NaN,NaN,0,0,19.387755102040817,21.902079353145012,13.186813186813188,21.902078897417287,NaN,NaN,42.85714285714286,100,90.13827958482717,0,4.606440316298192,2.286649949291555,26.760469122687162
Bogotá D.C.,Bogotá D.C.,11001,4.316839851429231,-74.20605366574615,45.7140539187181,94.52526300374633,0,0,70.75816148811187,76.61497177473164,12.195730192990927,54.253037376487995,11.566003047532899,85.3594898132495,5.662804825637791,99.25586622807018,96.5195179016205,5.596095342969099,1.0071885808378065,0.49997124876472965,33.95277403065545
Bojacá,Cundinamarca,25099,4.72366718459,-74.34194966805,NaN,NaN,0,0,7.4074074074074066,34.00898938904991,1.9607843137254901,34.00898921855267,NaN,NaN,16.666666666666657,100,82.86797536523926,5.555555555555555,1.887362757796161,0.9368921896458122,22.844693967735115
Bojaya,Chocó,27099,6.55673354492875,-76.90271583284999,NaN,NaN,0,0,33.33333333333333,36.87432089441897,25,36.874320789397125,NaN,NaN,55.55555555555556,100,100,0,0,0,31.88756452575526
Bolívar,Cauca,19100,1.8721178715425,-76.96098405795833,40,95.20958083832335,0,0,17.866666666666664,38.59480130220905,0.5405405405405406,38.59480026607673,3.6666666666666665,95.35864978902954,16,62,75.31211291927619,16,3.6575555555555557,1.8156208810631538,27.141269205856236
Bolívar,Santander,68101,6.112554097193333,-73.80762070073334,NaN,NaN,0,0,2.4000000000000004,8.67232061544852,1.0810810810810811,8.672320558981069,NaN,NaN,32,24,50.62422583855239,16,7.315111111111111,3.6312417621263076,13.247634582574491
Bolívar,Valle del Cauca,76100,4.348410290582001,-76.25530965657,NaN,NaN,0,0,24.133333333333333,36.44288521289769,0.3603603603603604,36.44288077435019,NaN,NaN,10.666666666666666,74.66666666666667,83.5414086128508,5.333333333333333,2.4383703703703703,1.2104139207087692,21.70849440701709
Bosconia,Cesar,20060,9.886818755583333,-73.85513575973333,NaN,NaN,0,0,57.57573617682367,69.20783922061084,6.839402427637721,48.679731809615504,NaN,NaN,10.92436974789916,100,90.44154544253344,0,0,0,26.006955806130577
Boyacá,Boyacá,15104,5.45423716391,-73.3623027174,NaN,NaN,0,0,51.388888888888886,62.948863171487524,2.2222222222222223,50.59848226127506,NaN,NaN,4.166666666666664,100,97.36266504114897,0,0,0,26.085734924961045
Briceño,Antioquia,5107,7.137577242996,-75.5695647369,NaN,NaN,0,0,9.941134158335903,17.102568220468825,2.8667214012041597,17.102567740446027,NaN,NaN,22.796934865900383,81.0344827586207,74.46311810904464,0,0.8606896551724138,0.4272487693789027,19.04480890346599
Briceño,Boyacá,15106,5.69087889724,-73.9232596955,NaN,NaN,0,0,53.15101070154578,59.427649481420964,2.955665024630542,18.855298874459976,NaN,NaN,17.241379310344826,62.06896551724138,77.60063505322351,0,0.8606896551724138,0.4272487693789027,21.810964610491872
Bucaramanga,Santander,68001,7.172108315246667,-73.12675052726667,31.403125,96.23914670658682,0,0,62.423945323544814,71.40686118403747,13.84112014214055,54.04673960326823,7.353125,90.69224683544304,10.235804759614284,96.30102040816327,97.6684849261133,4.974978497145985,1.1381853615425321,0.5649984197227452,33.47044276583838
Bucarasica,Norte de Santander,54109,8.084113688696666,-72.88900189443333,NaN,NaN,0,0,1.7598574292715523,9.663033347047849,0.27137042062415195,9.66303317640399,NaN,NaN,8.955223880597018,17.91044776119403,50.037005686284566,8.955223880597014,7.81187987810297,3.877839177452079,9.931080132833747
Buena Vista,Boyacá,15109,5.51243115138,-73.9423052248,NaN,NaN,0,0,41.18146363031294,42.73230195378163,5.993895707513475,14.098451861538992,NaN,NaN,17.890772128060267,68.64406779661017,64.4586089144301,1.1299435028248588,0.7999077951179139,0.3970764828261572,20.169319433814508
Buenaventura,Valle del Cauca,76109,3.883085,-77.019447,13,98.44311377245509,0,0,61.79617518483915,66.80930710413706,21.732676606094326,42.670619664430674,4,94.9367088607595,17.92847503373819,94.54545454545455,91.71566590452174,0.763888888888889,0.27285634227186745,0.13544665693644378,28.226709448466313
Buenavista,Córdoba,23079,8.211365650612143,-75.40459815049286,NaN,NaN,0,0,45.296689967761495,49.627958991291806,0.4383401519579193,24.441937513327197,NaN,NaN,6.779661016949153,68.64406779661017,76.97449201481129,1.1299435028248588,0.7999077951179139,0.3970764828261572,20.582045854456755
Buenavista,Quindío,63111,4.382199739725,-75.73608289515,NaN,NaN,0,0,45.296689967761495,48.527619359819774,0.4383401519579193,22.791425891014292,NaN,NaN,6.779661016949153,68.64406779661017,76.97449201481129,1.1299435028248588,0.7999077951179139,0.3970764828261572,20.48201497886839
Buenavista,Sucre,70110,9.375311107373333,-74.95526084105,NaN,NaN,0,0,43.44483811590965,53.090490924017125,33.625560101305275,53.09048981574668,NaN,NaN,40.11299435028249,79.09604519774011,84.64966134320753,1.1299435028248588,0.7999077951179139,0.3970764828261572,30.576956164839192
Buenos Aires,Cauca,19110,3.049100523212,-76.67241587301,NaN,NaN,0,0,24.371301775147927,42.69279406854597,10.256410256410255,42.69279379907546,NaN,NaN,20.192307692307693,100,91.89722339498377,0,0,0,26.310003380672327
Buesaco,Nariño,52110,1.3627983999283333,-77.12960183936667,65.5,92.1556886227545,0,0,65.52160493827161,67.64557584754293,3.398268398268398,27.20254506118973,28,64.55696202531647,7.037037037037036,100,84.43328188231436,0,0,0,27.086275794525758
Bugalagrande,Valle del Cauca,76113,4.21295059103375,-76.103968757,NaN,NaN,0,0,42.01183431952663,53.361654958165325,5.769230769230768,30.042482277197138,NaN,NaN,17.94871794871795,88.46153846153847,87.38222075337752,12.820512820512821,7.008547008547008,3.479062478026485,25.700514199054005
Buriticá,Antioquia,5113,6.753446216578571,-75.90530156405714,NaN,NaN,0,0,19.974795211090104,29.835409959934672,11.185770750988143,29.83540946788621,NaN,NaN,27.536231884057976,69.56521739130434,68.64158571627053,0,0,0,20.612637355785978
Busbanzá,Boyacá,15114,5.8313895322,-72.8841617543,NaN,NaN,0,0,25,39.90103131467231,0,39.90103065649181,NaN,NaN,0,100,100,0,0,0,24.081911937697484
Cabrera,Cundinamarca,25120,3.98461913986,-74.4841872343,NaN,NaN,0,0,9.183673469387754,12.994261776553396,5.82010582010582,12.994261558808335,NaN,NaN,46.42857142857143,50,63.6156528053212,10.714285714285714,6.135284431554375,3.045572474838272,18.90340072005618
Cabrera,Santander,68121,6.59226080179,-73.2465028955,NaN,NaN,0,0,22.591836734693878,28.320277383037862,12.91005291005291,28.32027677202298,NaN,NaN,43.214285714285715,75,81.8078264026606,5.357142857142857,3.0676422157771874,1.522786237419136,24.890168223188198
Cabuyaro,Meta,50124,4.34334830428,-72.877696750675,NaN,NaN,0,0,21.875,33.03029889847927,10.714285714285714,33.03029875458229,NaN,NaN,25,100,94.09540575059907,0,0,0,25.883180942124007
Cáceres,Antioquia,5120,7.766653119626,-75.27895862788,NaN,NaN,0,0,52.908587257617725,67.4420567782978,0.5847953216374269,34.88411352365524,NaN,NaN,2.631578947368425,100,87.97629042300548,0,0,0,23.160251441418673
Cachipay,Cundinamarca,25123,4.723042986143334,-74.4532273219,NaN,NaN,0,0,8.843537414965985,12.83916086425632,4.285714285714286,12.83916058693442,NaN,NaN,33.33333333333334,57.14285714285714,62.3085547193835,23.809523809523807,42.21045197740113,20.953387267863988,24.1569564377545
Cachirá,Norte de Santander,54128,7.697830056412,-73.083064979,NaN,NaN,0,0,22.448979591836732,37.649344408779214,9.523809523809524,37.64934408796447,NaN,NaN,28.57142857142857,100,97.99332101081504,0,0,0,26.92608028242446
Cácota,Norte de Santander,54125,7.26870546239,-72.6420588392,NaN,NaN,0,0,8.444444444444446,10.690910515575515,1.9047619047619049,10.690909660163344,NaN,NaN,13.333333333333329,100,54.64330136869449,0,0,0,17.183341051528153
Caicedo,Antioquia,5125,6.40556700301,-75.9828188939,NaN,NaN,0,0,13.746537396121884,33.932525187767595,0.37593984962406013,33.93252454036734,NaN,NaN,5.2631578947368425,100,82.08773043878683,0.8771929824561403,0.9751138832832155,0.4840492785446341,21.61293153739284
Caicedonia,Valle del Cauca,76122,4.299344256592001,-75.83130262876,36,95.68862275449102,0,0,45.63137755102041,55.47762061026542,1.1675824175824174,33.21642991761875,5,93.67088607594937,3.2738095238095233,100,89.00174973299909,6.666666666666666,0,0,26.836232608671594
Caimito,Sucre,70124,8.791786962823,-75.125261715135,NaN,NaN,0,0,71.33333333333333,79.39306328038151,4.444444444444445,38.17918966687084,NaN,NaN,6.666666666666667,100,83.51333247954827,16.666666666666668,6.998408327088376,3.4740296079898894,27.016796380920365
Cajamarca,Tolima,73124,4.412845227823333,-75.43816919056667,NaN,NaN,0,0,72.22222222222223,77.84041666669766,34.343434343434346,63.06736074620881,NaN,NaN,13.333333333333332,100,91.95644891122278,3.333333333333333,1.6666666666666665,0.8273380283111763,30.45484001848715
Cajibío,Cauca,19130,2.621383438887143,-76.64899101146429,NaN,NaN,0,0,14.285714285714285,20.83288397205061,0,20.83288337469779,NaN,NaN,0,100,91.16803162769752,0,0,0,20.57151180776931
Cajicá,Cundinamarca,25126,4.9187646804225,-74.03357835293,11,98.68263473053892,0,0,70.64120282763841,73.20697278662739,2.1623972169512964,28.551926414576858,1,98.73417721518987,4.8483455882352935,100,80.66059650529958,0,0,0,26.40650920263115
Calamar,Bolívar,13140,10.199809872316667,-74.97012373853333,NaN,NaN,0,0,7.000000000000001,13.214042542856616,2.1052631578947367,13.214042484295943,NaN,NaN,20,40,63.640219856198435,0,9.99949532382511,4.9637776471921775,14.62934532072428
Calamar,Guaviare,95015,1.9481849191666667,-72.56519350666667,NaN,NaN,0,0,7.000000000000001,13.214042542856616,2.1052631578947367,13.214042484295943,NaN,NaN,20,40,63.640219856198435,0,9.99949532382511,4.9637776471921775,14.62934532072428
Calarcá,Quindío,63130,4.451251391238333,-75.70156327689166,NaN,NaN,0,0,54.36651691138871,62.325949049442535,3.8493589743589745,43.488921137758624,NaN,NaN,7.428774928774929,93.75,94.43396967548185,5.833333333333333,0,0,25.72516302934849
Caldas,Antioquia,5129,6.080578740182666,-75.63733153309333,NaN,NaN,0,0,20.430603613994617,30.26627334334495,0.7352941176470589,30.266271013647522,NaN,NaN,3.9215686274509807,100,94.55801339325264,13.72549019607843,19.11853971288468,9.49049697014816,26.56784363407286
Caldas,Boyacá,15131,5.575708183485,-73.86395272235,NaN,NaN,0,0,69.3194925028835,74.95072002701072,2.2058823529411766,24.852160034231225,NaN,NaN,3.9215686274509807,100,90.60317252489224,13.72549019607843,19.11853971288468,9.49049697014816,27.708726635975843
Caldono,Cauca,19137,2.80410615225,-76.51236874564286,NaN,NaN,0,0,11.11111111111111,18.86097145930048,0,18.860971415195234,NaN,NaN,0,100,76.5495865224793,0,0,0,18.77469719026281
Cali,Valle del Cauca,76001,3.406996143003396,-76.56139954027547,44.973684210526315,94.6139300346675,0,0,53.283282762030396,60.829591922469994,11.361954132652693,46.872318344334005,10.824561403508772,86.29802353986231,12.428082753885624,93.80104466145256,94.99090453659792,3.0750333000333,1.1122057521638224,0.5521020684429395,29.70467796510589
California,Santander,68132,7.3582172334900005,-72.93133846525,NaN,NaN,0,0,16.666666666666664,34.49543326177465,0,34.49543233618278,NaN,NaN,0,100,89.59076233862866,0,0,0,21.886623842460907
Calima,Valle del Cauca,76126,3.932988747366,-76.46007863352,NaN,NaN,0,0,44.42700156985871,60.75707698526843,9.98168498168498,41.135615137591664,NaN,NaN,27.655677655677653,96.15384615384616,90.19977094732334,11.904761904761905,3.2392421787190084,1.6079689424182702,27.771084602297602
Caloto,Cauca,19142,3.0723791454209914,-76.38356605306357,NaN,NaN,0,0,15.142857142857142,21.103516153676342,3.3333333333333335,21.103515309817233,NaN,NaN,15,100,82.16938332648436,0,0,0,21.52264454148647
Campamento,Antioquia,5134,7.0122298621175005,-75.277866910625,NaN,NaN,0,0,7.491082045184304,8.560702127758653,4.1871921182266005,8.560701756253382,NaN,NaN,44.827586206896555,41.37931034482759,43.88555079613817,0,0,0,13.666493058093806
Campo de La Cruz,Atlántico,8137,10.42033911955,-74.85854933044999,NaN,NaN,0,0,16.03185595567867,31.8936788693621,2.912280701754386,31.893677040882956,NaN,NaN,36.18421052631579,73.68421052631578,89.33004415744827,1.3157894736842104,0.6032903544000563,0.29947503138509607,22.932257781485852
Campoalegre,Huila,41132,2.6504612600357143,-75.34381264492858,NaN,NaN,0,0,40.94762316802769,47.53961884147233,0.7723577235772358,30.0528246670317,NaN,NaN,8.536585365853657,86.17886178861788,78.79464694323444,9.866962305986696,14.32987708799702,7.113391353554974,25.284554651205195
Campohermoso,Boyacá,15135,5.01599537399,-73.11951176556667,NaN,NaN,0,0,33.33333333333333,45.35064235485374,0,45.350641511150336,NaN,NaN,0,100,100,0,0,0,25.334906880744278
Canalete,Córdoba,23090,8.729832732895556,-76.21265344948888,NaN,NaN,0,0,28.000000000000004,29.29134737689955,10,29.291347195433005,NaN,NaN,20,100,100,0,0,0,26.11739521608178
Cañasgordas,Antioquia,5138,6.838775567138333,-76.03705874291667,NaN,NaN,0,0,10.343614259021086,18.94349068659339,5.3334596438044715,18.943490413353274,NaN,NaN,33.251231527093594,77.58620689655172,69.35243563191278,0,0,0,19.52822169499791
Candelaria,Atlántico,8141,10.4725647215,-74.8902619593,NaN,NaN,0,0,4.64,16.00464257536041,0.6666666666666667,16.004642551504315,NaN,NaN,8,100,75.4632876550162,12,7.666666666666666,3.8057549302314113,20.74972895399467
Candelaria,Valle del Cauca,76130,3.399602345184,-76.391730188104,NaN,NaN,0,0,32.666172839506174,56.546633516412804,15.820261437908497,56.54663305319041,NaN,NaN,22.555555555555554,86.11111111111111,90.47733259433504,11.333333333333332,5.994651133788377,2.9757617096651003,29.498255748328724
Cantagallo,Bolívar,13160,7.306284001933571,-73.98364204350715,NaN,NaN,0,0,51.77777777777778,67.22130163514056,0.22988505747126436,34.44260324003263,NaN,NaN,1.6666666666666643,100,79.51957768612218,5,3.5304280589557444,1.7525144336345395,23.483947267633816
Caparrapí,Cundinamarca,25148,5.39557756919,-74.52817911871,NaN,NaN,0,0,4.84764542936288,10.805282083702828,2.275960170697013,10.805281739851418,NaN,NaN,31.578947368421055,55.263157894736835,53.64577920782345,0,0,0,14.401524741340369
Capitanejo,Santander,68147,6.53317998207,-72.6991995911,NaN,NaN,0,0,75,75,0,49.999996047430514,NaN,NaN,0,100,100,0,0,0,26.136363636363637
Caqueza,Cundinamarca,25151,4.40410105992,-73.946474203,NaN,NaN,0,0,4.024438941005451,16.786490136642207,1.740780463658114,16.78649002156716,NaN,NaN,22.08976157082749,28.050490883590463,60.193374537613636,4.3478260869565215,0.3220611434610076,0.15987205885600378,12.5195541656919
Caracolí,Antioquia,5142,6.40985472681,-74.7574494413,NaN,NaN,0,0,5.902777777777776,7.648461101805254,1.8115942028985508,7.648460693440169,NaN,NaN,20.833333333333343,41.666666666666664,42.46896908217111,0,0.27786748928146005,0.13793420442834006,10.977054896214772
Caramanta,Antioquia,5145,5.558226526033334,-75.6192571283,NaN,NaN,0,0,44.89586539448035,51.86050027694339,7.1345029239766085,27.79075002991083,NaN,NaN,21.34502923976608,81.57894736842105,83.6346294126412,5.5555555555555545,1.9432362777777776,0.9646279623596498,24.223957682749276
Carcasí,Santander,68152,6.64078147853,-72.6086080818,NaN,NaN,0,0,12.244897959183671,17.675295787213468,5.4945054945054945,17.675295222790815,NaN,NaN,28.57142857142857,100,73.98333043619328,0,0,0,21.633587113502227
Carepa,Antioquia,5147,7.802136556887692,-76.6755318567923,60,92.81437125748504,0,0,17.36859204541568,31.300790670532912,3.947368421052631,31.30079037169879,1,98.73417721518987,16.37426900584796,100,90.58473242117893,0,0,0,28.250693916351146
Carmen de Apicala,Tolima,73148,4.1479120574,-74.7161694209,NaN,NaN,0,0,37.03703703703704,55.19514172864711,4.444444444444445,55.19514088295236,NaN,NaN,11.111111111111114,100,100,11.111111111111109,5.5555555555555545,2.757793427703921,29.746563128691843
Carmen de Carupa,Cundinamarca,25154,5.34911575799,-73.9015737647,NaN,NaN,0,0,31.25,58.32797434253985,15.476190476190474,58.32797264534587,NaN,NaN,31.25,100,100,31.25,8.066062000155291,4.004015898866509,34.51129479252292
Carmen del Darien,Chocó,27150,7.057373894920834,-76.926757233525,NaN,NaN,0,0,7.03125,18.654950581604428,0.8333333333333334,18.65495051542946,NaN,NaN,6.25,100,72.95813112999127,0,0,0,18.702515004084457
Carolina,Antioquia,5150,6.72597714593,-75.2831701138,NaN,NaN,0,0,8.577530276816608,20.795165347137676,2.6715686274509807,20.79516490388955,NaN,NaN,18.014705882352942,100,67.66625033638175,5.88235294117647,2.607768329237829,1.2945035446823738,20.682713207748783
Cartagena,Bolívar,13001,10.351321809922903,-75.54423180374839,27,96.76646706586827,0,0,72.82391843802952,79.33617444457855,14.736307360728663,55.40963874281183,5.088888888888889,93.55836849507736,7.08736251707921,92.55192298294483,92.70179149467289,5.49152493596938,1.074925830376962,0.533596210250898,33.00322855697972
Cartagena del Chairá,Caquetá,18150,0.7659345413486,-74.54132381019333,NaN,NaN,0,0,14.63116008570554,31.05286143346239,5.075757575757575,31.052861214609592,NaN,NaN,15.656565656565654,100,90.05761953832285,0,0,0,23.315814935437636
Cartago,Valle del Cauca,76147,4.7259854048016665,-75.94079136578333,26,96.88622754491017,0,0,55.655762304921964,60.95226189306888,23.89405466328543,48.93757156850512,2,97.46835443037975,13.865546218487395,100,94.28608093307766,0.390625,1.3130961844197138,0.651824644920441,29.952059077310093
Caruru,Vaupés,97161,1.01459770902,-71.2977932628,NaN,NaN,0,0,6.790123456790123,13.261046505736035,1.3071895424836601,13.261046210518357,NaN,NaN,11.111111111111114,100,60.90269840109619,22.22222222222222,10.583314245200699,5.253587004373159,21.039208408092108
Casabianca,Tolima,73152,5.0914435269950005,-75.08797299529999,NaN,NaN,0,0,26.905417814508723,36.56773190539702,1.8181818181818181,36.56772756069902,NaN,NaN,9.090909090909088,100,92.81121335892263,0,0,0,24.290313998901752
Castilla la Nueva,Meta,50150,3.7997360375883336,-73.5310106859,NaN,NaN,0,0,29.814814814814813,45.18499026398091,5.649717514124293,45.184989711296026,NaN,NaN,11.111111111111114,72.22222222222223,90.66281956346836,3.888888888888889,10.140012330269656,5.033530685025789,24.882555217627825
Caucasia,Antioquia,5154,7.940203249063125,-75.05349437685,20,97.60479041916167,0,0,52.08220659816117,52.99786368124699,1.8826135105204873,5.995727206619448,6,92.40506329113924,12.790697674418603,41.860465116279066,36.299142728083666,6.976744186046512,1.319086846704632,0.6547984265542903,27.426681003884948
Cepitá,Santander,68160,6.75351840155,-72.9735364646,NaN,NaN,0,0,25,25.54415012045083,0,25.544142754884618,NaN,NaN,0,100,100,0,0,0,22.776740920040986
Cereté,Córdoba,23162,8.896596506361579,-75.81055283314737,NaN,NaN,0,0,7.4455861949358315,28.487720042956127,3.9060308555399716,28.48771998953049,NaN,NaN,28.42741935483871,46.43817204301075,85.73949040498795,6.25,0,0,18.79040171784267
Cerinza,Boyacá,15162,5.95602818885,-72.948275851,NaN,NaN,0,0,47.916666666666664,58.86461887303231,25,58.86461679337375,NaN,NaN,25,100,100,0,0,0,32.43466232179082
Cerrito,Santander,68162,6.831652179904999,-72.69538934479999,NaN,NaN,0,0,56.19834710743802,65.83875933385403,3.6363636363636362,31.677518506855613,NaN,NaN,9.090909090909086,100,89.92001330092246,0,0,0,24.12783672734947
Cerro San Antonio,Magdalena,47161,10.29819055902,-74.83839984164,NaN,NaN,0,0,75,78.515625,50,78.51562488810221,NaN,NaN,25,100,100,0,0,0,38.95596590909091
Chachagüí,Nariño,52240,1.3894421932481817,-77.28505918884545,NaN,NaN,0,0,58.33333333333333,67.41686371660653,6.666666666666667,45.694772128942624,NaN,NaN,6.666666666666669,100,100,5,1.5408362947513385,0.7648754772299227,26.702052317144343
Chaguaní,Cundinamarca,25168,4.9489158269,-74.5934552918,NaN,NaN,0,0,18.36734693877551,35.41018552712124,4.761904761904762,35.410185243784454,NaN,NaN,14.285714285714292,100,98.24531594659017,14.285714285714285,7.113703680598878,3.531262546257981,26.909195270243373
Chalán,Sucre,70230,9.532326873606,-75.31061195964,NaN,NaN,0,0,33.33333333333333,63.65531556268378,0,63.65531493086293,NaN,NaN,0,100,100,0,0,0,26.998968081456102
Chámeza,Casanare,85015,5.21431174949,-72.8702355842,NaN,NaN,0,0,16.666666666666664,25.255697329513733,0,25.25569668748446,NaN,NaN,0,100,89.55532283262744,33.33333333333333,8.191721132897603,4.0663934463399,25.18810315830715
Chaparral,Tolima,73168,3.717383947572,-75.60556756436,NaN,NaN,0,0,50.73167268222213,55.8857420952479,8.307857555977856,36.97963044890423,NaN,NaN,16.41636141636142,91.57509157509158,93.69426457850162,0,0,0,25.548893253684653
Charalá,Santander,68167,6.230568521716666,-73.14366172933333,NaN,NaN,0,0,21.8125,32.912368188543304,6.785714285714286,32.91236751278312,NaN,NaN,16.25,100,90.39300280547894,37.5,27.697077922077924,13.74890750281978,31.554506427694022
Charta,Santander,68169,7.28082047249,-72.9687984566,NaN,NaN,0,0,31.944444444444446,36.21496960733772,13.333333333333334,36.21496830717974,NaN,NaN,25,100,100,0,0,0,27.862977035010502
Chía,Cundinamarca,25175,4.8707118847599995,-74.05836754386154,NaN,NaN,0,0,43.78968253968254,50.101184367469486,0,40.12141985493264,NaN,NaN,0,100,93.12191404968318,1.1904761904761905,0.4166666666666667,0.20683450707779413,24.467252058737152
Chigorodó,Antioquia,5172,7.597805034473334,-76.65861022205,NaN,NaN,0,0,47.474747474747474,56.21331709937871,0,34.31997476781633,NaN,NaN,0,100,89.61493566824599,0,0,0,23.190729244208196
Chimá,Córdoba,23168,9.094356576396667,-75.65286788034444,NaN,NaN,0,0,9.183673469387754,19.25593664170474,2.197802197802198,19.255936435785234,NaN,NaN,14.285714285714292,100,70.45568186256529,0,0,0,19.579891677924934
Chimá,Santander,68176,6.34435172066,-73.373747738,NaN,NaN,0,0,9.183673469387754,19.25593664170474,2.197802197802198,19.255936435785234,NaN,NaN,14.285714285714292,100,70.45568186256529,0,0,0,19.579891677924934
Chimichagua,Cesar,20175,9.257190096935757,-73.82545586000909,NaN,NaN,0,0,54.53559027777778,58.411581976215686,0.4166666666666667,16.823162643799815,NaN,NaN,1.5625,100,72.15318522581205,1.5625,0,0,21.805190745475713
Chinácota,Norte de Santander,54172,7.610811020763333,-72.60440914536667,NaN,NaN,0,0,13.102040816326529,28.062176594650566,4.981684981684982,28.06217628443087,NaN,NaN,20.714285714285715,100,86.40536381728802,0,0,0,23.024141084021437
Chinavita,Boyacá,15172,5.16748382122,-73.3684764814,NaN,NaN,0,0,20,59.02298076410545,0,59.02298044768496,NaN,NaN,0,100,98.45561968337422,0,4.18513555303577,2.077513077998171,25.7946590071376
Chinchiná,Caldas,17174,4.9685362789875,-75.652283047625,NaN,NaN,0,0,46.04988662131519,56.74593595876148,1.0084033613445378,35.11890300203265,NaN,NaN,8.57142857142857,71.42857142857143,80.97490077073356,11.111111111111109,0,0,22.704813269974185
Chinú,Córdoba,23182,9.033475768963449,-75.36202532998276,NaN,NaN,0,0,18.055555555555557,41.76767136207079,0,41.76767122549913,NaN,NaN,0,100,90.81408172732294,0,0,0,22.785209876813575
Chipaque,Cundinamarca,25178,4.437041953923333,-74.0252248078,NaN,NaN,0,0,16.049382716049383,29.29003669873603,5.555555555555555,29.290036370792084,NaN,NaN,22.222222222222214,100,90.43855743544079,0,0,0,23.95961405709127
Chipatá,Santander,68179,6.08849324192,-73.63065755024999,NaN,NaN,0,0,56,56.06548776005523,2.2222222222222223,12.130974433792193,NaN,NaN,5,100,54.89077354828341,5,2.5,1.2410070424667647,21.98754478979771
Chiquinquirá,Boyacá,15176,5.61412789039,-73.8183876347,NaN,NaN,0,0,66.7077782174735,79.14325473163983,17.90448343079922,65.23875681795788,NaN,NaN,9.962406015037594,92.06349206349206,92.10643226683044,1.9548872180451127,0.9516423043538478,0.4723979206449701,28.221546460351625
Chíquiza,Boyacá,15232,5.622546639665,-73.46734905330001,NaN,NaN,0,0,50.34722222222222,52.200859013870314,11.111111111111109,36.267808788743444,NaN,NaN,8.333333333333336,100,93.80188330766615,8.333333333333332,2.008624054629659,0.9970866389854217,26.786836764587022
Chiriguaná,Cesar,20178,9.416542310948,-73.52775507516,NaN,NaN,0,0,39.417650305328564,65.01039360413462,0.16228497241155468,47.515590377693854,NaN,NaN,3.7974683544303836,60.75949367088607,74.47968616079042,0,0,0,20.31755958787445
Chiscas,Boyacá,15180,6.563968110439999,-72.48669977899999,NaN,NaN,0,0,65.625,65.20468695604481,21.428571428571427,30.409373525449496,NaN,NaN,18.75,100,94.22184076741021,0,0,0,26.809535732185054
Chita,Boyacá,15183,6.18708299638,-72.4718923521,NaN,NaN,0,0,62.5,73.0230284463995,50,73.02302823634199,NaN,NaN,25,100,100,0,0,0,37.32027531330905
Chitagá,Norte de Santander,54174,7.101083579046,-72.60558660702,NaN,NaN,0,0,12.244897959183671,16.94184004814151,5.4945054945054945,16.94183959469599,NaN,NaN,28.57142857142857,100,72.5557292849531,0,0,0,21.437127396201124
Chitaraque,Boyacá,15185,6.02742513316,-73.4471004029,NaN,NaN,0,0,15.330578512396697,23.07965915833127,6.363636363636363,23.07965694223776,NaN,NaN,18.181818181818183,100,83.18483885979967,4.545454545454546,2.272727272727273,1.1281882204243314,23.098809192235304
Chivatá,Boyacá,15187,5.55894884501,-73.2825294417,NaN,NaN,0,0,29.45578231292517,36.70380963741143,1.5873015873015872,36.703806980526785,NaN,NaN,4.761904761904764,100,94.68055115195583,4.761904761904762,1.5873015873015872,0.7879409793439774,24.938772434549918
Chivolo,Magdalena,47170,10.053562273193334,-74.50555881493334,NaN,NaN,0,0,39.002267573696145,46.474410487388454,21.428571428571427,46.47440995543362,NaN,NaN,30.952380952380956,100,97.33730004265033,0,0,0,30.472266407698847
Chivor,Boyacá,15236,4.8877816607,-73.3668937555,NaN,NaN,0,0,50,50.585097378959844,0,50.58509663157407,NaN,NaN,0,100,100,50,9.701637016800396,4.815919944522218,33.19115039457113
Choachí,Cundinamarca,25181,4.570563418563333,-73.922870858,NaN,NaN,0,0,12.5,76.36878804491326,0,76.36878799348517,NaN,NaN,0,100,100,12.5,4.166666666666666,2.0683450707779407,27.96398179839617
Chocontá,Cundinamarca,25183,5.14522389367,-73.6835234355,NaN,NaN,0,0,40.36873441905268,49.358989900272064,1.8337734616804386,32.4786528063314,NaN,NaN,14.065295169946333,65.44424567680382,68.76182600780592,0,0,0,20.4157184862717
Cicuco,Bolívar,13188,9.226225418266667,-74.70924774663334,NaN,NaN,0,0,10.743801652892564,29.307375105693872,1.8181818181818181,29.307374952217057,NaN,NaN,9.090909090909093,100,85.00214957264491,0,0,0,21.451128840029295
Ciénaga,Magdalena,47189,10.929009546744444,-74.13831838338889,NaN,NaN,0,0,57.85123966942149,64.22773743134108,7.2727272727272725,28.455474502956655,NaN,NaN,13.636363636363637,95.45454545454545,94.11734816878315,0,0,0,24.694331925923105
Ciénaga de Oro,Córdoba,23189,8.852828540304285,-75.61398702378571,NaN,NaN,0,0,7.9584775086505175,23.309453407334185,2.2058823529411766,23.30945335297279,NaN,NaN,17.64705882352942,100,87.8519557509138,35.294117647058826,5.60723683412759,2.7834481599725542,25.69614822586619
Ciénega,Boyacá,15189,5.40870219185,-73.2960612914,NaN,NaN,0,0,65.33333333333333,78.3308606338729,5,56.66172015956444,NaN,NaN,5,100,100,0,0,0,26.242199451564204
Cimitarra,Santander,68190,6.3783402921115,-74.214510352785,NaN,NaN,0,0,15.740740740740739,22.904659180812637,5.294117647058823,22.904659039417794,NaN,NaN,22.22222222222222,75,85.9932419647796,0,1.4643831151274334,0.7269239034970255,20.84966261583986
Circasia,Quindío,63190,4.5944171800284614,-75.66376196745385,17,97.96407185628743,0,0,46.22222222222222,52.12810085382099,6,42.55371897070361,3,96.20253164556962,6.666666666666667,100,98.49954271271311,0,0,0,29.308467182994697
Cisneros,Antioquia,5190,6.53776195685,-75.0872076079,NaN,NaN,0,0,27.34159779614325,46.055172190831215,0.8658008658008658,46.055170902736414,NaN,NaN,7.575757575757578,80.3030303030303,88.69748349504745,10.606060606060606,1.6695526695526695,0.82877064827362,23.99483874095432
Ciudad Bolívar,Antioquia,5101,5.838994744234,-76.01144037846,NaN,NaN,0,0,72,72.46008329596684,30,44.92016601806167,NaN,NaN,20,100,100,0,0,0,28.814553026906076
Clemencia,Bolívar,13222,10.552236022433332,-75.27663549413333,NaN,NaN,0,0,9.183673469387754,17.375728674183208,2.197802197802198,17.375728561760454,NaN,NaN,14.285714285714292,100,74.5649984738808,14.285714285714285,0,0,21.08123921697114
Cocorná,Antioquia,5197,6.042443199796667,-75.1606239508,NaN,NaN,0,0,13.729128014842301,22.658512480385784,2.380952380952381,22.658511931087112,NaN,NaN,7.142857142857146,100,74.42905458595064,0,0,0,20.030954964089844
Coello,Tolima,73200,4.3381367203237495,-74.91387119063751,NaN,NaN,0,0,53.57142857142857,58.31213959570778,0,44.41618314940684,NaN,NaN,0,100,94.65515440668534,3.571428571428571,2.409382297619581,1.1960241597362615,25.800160818266797
Cogua,Cundinamarca,25200,5.066563645566363,-73.97315615007273,NaN,NaN,0,0,33.33333333333333,36.83362384055879,0,36.83362259776704,NaN,NaN,0,100,100,33.33333333333333,0,0,27.590935500656858
Colombia,Huila,41206,3.4981968044366667,-74.74190197856666,NaN,NaN,0,0,61.666666666666664,78.96417201505413,0,64.94028595397218,NaN,NaN,0,100,100,0,0,0,26.42098533470189
Colón,Nariño,52203,1.654023569935,-77.053214207075,NaN,NaN,0,0,53.90625,55.907153619867785,1.6666666666666667,11.814306561566257,NaN,NaN,6.25,100,59.42242346252187,0,0,0,21.28254078949655
Colón,Putumayo,86219,1.1992081475625,-76.95896219824999,NaN,NaN,0,0,16.049382716049383,35.77985862669277,5.555555555555555,35.77985790760276,NaN,NaN,22.222222222222214,100,93.09800524625503,0,0,0,24.791365851524997
Coloso,Sucre,70204,9.511061542453847,-75.3611858034077,NaN,NaN,0,0,55.02958579881657,58.58068850702751,2.564102564102564,17.16137687602463,NaN,NaN,7.692307692307693,100,72.98428079293053,0,0,0,22.416070334242576
Cómbita,Boyacá,15204,5.6304199777,-73.30886938503333,32,96.16766467065868,0,0,32.30861686390533,39.73951060130378,2.4954212454212454,39.73950850021332,6.5,91.77215189873418,10.817307692307693,100,88.05953670967847,0,0,0,28.18478978301807
Concepción,Antioquia,5206,6.39434709534,-75.2576027037,NaN,NaN,0,0,28.316326530612244,52.71473474170419,1.5873015873015872,52.71473365734726,NaN,NaN,16.07142857142857,76.78571428571428,85.35122863010542,3.571428571428571,23.802642978951198,11.81569902648021,27.27422772033875
Concepción,Santander,68207,6.76883652788,-72.6945942537,NaN,NaN,0,0,6.632653061224489,28.980462650321325,3.1746031746031744,28.980462488518725,NaN,NaN,32.14285714285714,53.57142857142857,70.70245726021083,7.142857142857142,47.605285957902396,23.63139805296042,24.871273001305955
Concordia,Antioquia,5209,6.0532782162925,-75.889832606,NaN,NaN,0,0,10.787067584126685,14.17503612384067,0.30458785455929943,14.175034225631517,NaN,NaN,14.563106796116507,78.15533980582524,64.80278857000991,0,0,0,16.617084248588938
Concordia,Magdalena,47205,10.246662177325,-74.80835696529999,NaN,NaN,0,0,1.5741351682533697,5.203850011522564,0.6091757091185989,5.203849891457464,NaN,NaN,29.126213592233015,56.310679611650485,29.60557714001981,0,0,0,11.129966475708894
Condoto,Chocó,27205,5.08569366242,-76.5779255517625,NaN,NaN,0,0,11.111111111111109,16.7276795610338,3.0303030303030303,16.727679467543194,NaN,NaN,16.666666666666657,100,73.53214014625718,0,0,0,20.097081865033797
Confines,Santander,68209,6.35732748987,-73.2405538757,NaN,NaN,0,0,41.666666666666664,55.41752202245556,10,55.4175203969975,NaN,NaN,16.66666666666667,100,100,0,0,0,29.431895941435354
Consaca,Nariño,52207,1.2205288364375,-77.4790211074,NaN,NaN,0,0,46.127946127946124,46.514429431981796,1.0416666666666665,19.771643332144038,NaN,NaN,10.101010101010099,78.78787878787878,67.8538357278299,0,0,0,20.563543010532268
Contadero,Nariño,52210,0.9186250202283333,-77.52468199696666,NaN,NaN,0,0,41.38350061773485,50.022527444619534,2.5437201907790143,33.363369288833475,NaN,NaN,16.441441441441444,70.77077077077077,81.42537010003174,0,0.8544496799375896,0.4241512280944087,22.175542382546723
Contratación,Santander,68211,6.29743846696,-73.52340949455,NaN,NaN,0,0,20,38.239425037501434,0,38.239423765594644,NaN,NaN,0,100,99.99999999999999,20,4.017571103770752,1.9943336133561906,25.841029977693488
Convención,Norte de Santander,54206,8.468918,-73.337638,NaN,NaN,0,0,22.448979591836732,34.09904753250269,9.523809523809524,34.099046825752154,NaN,NaN,28.57142857142857,100,96.78266931202745,0,0,0,26.49326677560045
Copacabana,Antioquia,5212,6.3386985445025,-75.5041646004,NaN,NaN,0,0,5.614366729678639,27.812324781640058,0.0716674629718108,27.812324739755926,NaN,NaN,3.2608695652173907,56.52173913043478,78.43254926472994,11.08695652173913,8.181675845016338,4.061406937138197,17.731232385324205
Coper,Boyacá,15212,5.47498301805,-74.0454607199,NaN,NaN,0,0,72.45179063360882,73.14041321681569,9.090909090909092,19.421239232106384,NaN,NaN,12.121212121212123,100,92.24434495210679,0,0,0,24.984106119937145
Córdoba,Bolívar,13212,9.479199413123332,-74.90806187431333,NaN,NaN,0,0,1.7527815881725344,7.450398184622221,0.5246913580246914,7.450398097713394,NaN,NaN,17.28395061728395,30.864197530864196,50.12346116332028,3.7037037037037033,1.0426495989434845,0.5175741980456048,10.296673449361878
Córdoba,Nariño,52215,0.86295835651775,-77.5286008885,NaN,NaN,0,0,75.43819539704313,76.86259954615555,66.84156378600824,69.1501326992378,NaN,NaN,29.320987654320987,76.95473251028807,83.3744870544401,0.9259259259259258,0.26066239973587113,0.1293935495114012,33.82416836234047
Córdoba,Quindío,63212,4.39248544874,-75.6878663583,NaN,NaN,0,0,42.25092719605751,44.846669135642244,0.2623456790123457,17.2700024108205,NaN,NaN,5.761316872427983,65.4320987654321,75.06173058166014,1.2345679012345678,0.34754986631449486,0.17252473268186827,19.40463688379652
Corinto,Cauca,19212,3.1761894478842856,-76.24721817081428,NaN,NaN,0,0,54.54545454545455,67.5651208680496,0,35.13024133549202,NaN,NaN,0,100,83.6547897261805,0,0,0,22.857997297872217
Coromoro,Santander,68217,6.2671444031900005,-73.0595067797,NaN,NaN,0,0,60,63.06449586094996,0,26.128990498334083,NaN,NaN,0,100,88.918540764219145,0,0,0,23.183978749369047
Corozal,Sucre,70215,9.23529083300625,-75.28723848705624,62.416666666666664,92.52495009980039,0,0,68.75,73.25018447286011,16.666666666666668,55.41697123901381,1,98.73417721518987,5,100,96.23517102626741,0,2.2245875,1.1042915016334136,33.103356610518865
Corrales,Boyacá,15215,5.82810220795,-72.8447948409,NaN,NaN,0,0,60.9375,69.62476226391048,55.357142857142854,69.62476186423237,NaN,NaN,43.75,100,95.62232545072087,0,0,0,38.662884597434015
Cota,Cundinamarca,25214,4.81298776927,-74.1027264632,NaN,NaN,0,0,69.23076923076923,84.80343176066158,0,54.41029526185983,NaN,NaN,0,100,95.66839500709429,5.128205128205129,4.107506716392898,2.0389779048092485,25.502880825139652
Cotorra,Córdoba,23300,9.047266178405714,-75.78525752125,NaN,NaN,0,0,11.555555555555555,21.455316852148535,1.1111111111111112,21.455316422593746,NaN,NaN,5,100,78.49476478275284,0,0,0,19.783340754688005
Covarachía,Boyacá,15218,6.51546970705,-72.75690427825,NaN,NaN,0,0,83.33333333333333,90.83440551668293,0,72.50321621993226,NaN,NaN,0,100,100,0,0,0,26.439491410607538
Coveñas,Sucre,70221,9.389444070986666,-75.67473699286667,NaN,NaN,0,0,30.555555555555557,33.43677318482949,0,33.43677236165772,NaN,NaN,0,100,86.46414471339054,0,0,0,22.768770313979598
Coyaima,Tolima,73217,3.7530830186166666,-75.08991458481667,NaN,NaN,0,0,45.2565090673013,52.32453626382732,15.371102327624065,47.02726055302009,NaN,NaN,21.189064558629777,89.67940272288098,92.84188891568816,3.389328063241107,0,0,27.978417502052125
Cravo Norte,Arauca,81220,6.30391275247,-70.2042855518,NaN,NaN,0,0,8.220603537981269,11.133619714286276,5.161290322580645,11.133619299513809,NaN,NaN,48.38709677419355,54.83870967741935,52.97770758050079,0,0,0,16.42900250972381
Cuaspud,Nariño,52224,0.862978103157,-77.728946826,5,99.40119760479041,0,0,55.27840765936004,61.713311996267045,2.458761282290694,36.18885038421824,2,97.46835443037975,6.19047619047619,100,85.21514069500736,3.571428571428571,1.1341174806474343,0.5629791121872523,28.395757604237488
Cubará,Boyacá,15223,6.9978326651725,-72.05879851005,NaN,NaN,0,0,59.25925925925926,65.04672257774487,8.333333333333332,30.093444825090188,NaN,NaN,11.111111111111107,100,89.34787723891175,0,0,0,24.705245294021616
Cubarral,Meta,50223,3.78634131905,-73.847983932,NaN,NaN,0,0,50,45.14238035014725,33.33333333333333,45.142378090739484,NaN,NaN,37.5,100,100,12.5,4.166666666666666,2.0683450707779407,34.973702310993204
Cucaita,Boyacá,15224,5.54445155869,-73.4543376458,NaN,NaN,0,0,33.02469135802469,44.9945836935481,13.888888888888888,44.99458160342384,NaN,NaN,22.22222222222223,100,96.86544194821668,3.7037037037037037,0.7407407407407408,0.3677057903605228,28.70981621324596
Cucunubá,Cundinamarca,25224,5.249767987,-73.7662153323,NaN,NaN,0,0,8.673469387755102,13.715981413873621,1.6483516483516485,13.715980732933692,NaN,NaN,10.714285714285715,100,68.02467959742951,7.142857142857142,5.088366281764505,2.5258793561280704,19.775806412949574
Cúcuta,Norte de Santander,54001,7.896264,-72.507036,135.33333333333334,83.79241516966067,0,0,41.707439459461625,48.04989267049322,8.396471540162183,31.64459411146083,1,98.73417721518987,11.178569263078842,83.52242046266515,81.55931304095893,4.173160132276155,0.9056889276281873,0.4495865349883009,23.825812202659343
Cúcuta,Norte de Santander,54001,8.139360181564,-72.46456641746286,23.504166666666666,97.18512974051896,0,0,69.89583333333333,73.03401142895727,17.261904761904763,55.05668331134399,3.7041666666666666,95.31118143459915,6.25,100,97.28869749121597,NaN,0,0,43.55721794342214
Cucutilla,Norte de Santander,54223,7.539238,-72.77297,NaN,NaN,0,0,19.186754321889456,22.99989470229103,1.2012012012012012,22.999893852013905,NaN,NaN,20.27027027027027,89.1891891891892,79.5142918733813,0,0,0,21.123781959838404
Cuítiva,Boyacá,15226,5.59031334933,-72.9389911419,NaN,NaN,0,0,55.55555555555555,57.54990504304014,10,36.32485548808173,NaN,NaN,11.111111111111114,100,100,0,0,0,26.292415609973347
Cumaral,Meta,50226,4.250733366972,-73.39397201356,NaN,NaN,0,0,46.78819444444444,49.715247694825266,0.4166666666666667,24.57286916523418,NaN,NaN,2.0833333333333335,100,76.36632579396449,2.0833333333333335,2.0833333333333335,1.0341725353889706,22.422085725613282
Cumaribo,Vichada,99773,4.476355685550589,-69.57572781311765,NaN,NaN,0,0,46.81712962962963,46.51227172070192,16.666666666666664,19.76840734585936,NaN,NaN,25,100,64.22748536019397,5.729166666666667,1.5314865454490312,0.7602342353381378,24.72239910445689
Cumbal,Nariño,52227,0.8508789136792857,-77.8380007172,NaN,NaN,0,0,45.74660748903173,53.93146133350694,15.714002772826301,38.57528087929792,NaN,NaN,25.757575757575765,90.9090909090909,88.11499813377888,2.7777777777777777,1.0339506944444445,0.5132560373475831,26.778563450132392
Cumbitara,Nariño,52233,1.7256364505622224,-77.58381426692222,NaN,NaN,0,0,39.98724489795919,37.6447096732053,14.880952380952381,37.64470822927887,NaN,NaN,19.642857142857142,100,97.80542134727214,3.571428571428571,0,0,28.502964910334065
Cunday,Tolima,73226,3.9847961904185714,-74.67504098204286,NaN,NaN,0,0,15.107709750566894,32.56982199040827,0.2380952380952381,32.56981475664972,NaN,NaN,2.3809523809523867,100,92.35516139994078,2.380952380952381,1.1904761904761905,0.5909557345079831,22.43764773326365
Curillo,Caquetá,18205,1.0689554784375002,-76.01517000775,NaN,NaN,0,0,22.448979591836732,21.124523875042463,9.523809523809524,21.124523309476988,NaN,NaN,28.57142857142857,100,85.659282198459,0,0,0,24.302547614597845
Curití,Santander,68229,6.60510678535,-73.0693905206,NaN,NaN,0,0,34.5679012345679,52.00666100855961,18.055555555555554,52.00665850038952,NaN,NaN,22.22222222222223,100,97.58595013777776,0,0,0,29.494390014425733
Curumaní,Cesar,20228,9.226124206318334,-73.60061864663334,NaN,NaN,0,0,59.72222222222222,64.47238321826207,25,46.70857374497227,NaN,NaN,16.666666666666668,100,91.7056078844252,5.5555555555555545,5.474000507002504,2.717309271862699,29.461685699805017
Dabeiba,Antioquia,5234,7.0120383221111116,-76.17636809091111,NaN,NaN,0,0,59.375,70.76054187376384,7.142857142857142,41.5210833886112,NaN,NaN,12.5,100,95.35797254684879,50,0,0,31.830541519874256
Dagua,Valle del Cauca,76233,3.6404187719192858,-76.68480650776786,NaN,NaN,0,0,75.9641873278237,79.45478648456348,1.4204545454545454,38.36435632652905,NaN,NaN,6.060606060606061,83.33333333333334,80.58072075230854,6.060606060606061,3.0165939592027837,1.497445739053342,25.19688440989887
Dibula,La Guajira,44090,11.238014158236364,-73.33876697070909,NaN,NaN,0,0,65.17094017094017,74.41922759785679,50,74.41922639210118,NaN,NaN,25,100,98.5093461441766,8.333333333333334,3.5040932197389654,1.7394417452624384,38.78876201920984
Distracción,La Guajira,44098,10.881936638166668,-72.90198839463334,NaN,NaN,0,0,70.83333333333333,72.38011438547773,4.545454545454546,17.140342911526105,NaN,NaN,8.333333333333334,100,74.90623088041,0,0,0,23.76036450249387
Dolores,Tolima,73236,3.62040996225,-74.81193478673333,NaN,NaN,0,0,47.088095238095235,51.2587633832054,16.19047619047619,39.073452868232316,NaN,NaN,22.92857142857143,100,99.48980949519479,0,0,0,28.074514418037168
Don Matías,Antioquia,5237,6.517541563452,-75.29618036394,NaN,NaN,0,0,9.72222222222222,11.781851249551739,1.5151515151515151,11.781850655802902,NaN,NaN,8.333333333333343,100,58.615587060410945,8.333333333333332,7.372906088350255,3.659931351635501,19.03039237763535
Dosquebradas,Risaralda,66170,4.833662528244117,-75.66663024883529,NaN,NaN,0,0,53.33722118512041,61.067433605277245,4.5586519192657295,37.707891549312485,NaN,NaN,9.241287094547964,96.52173913043478,93.81563731773639,3.7952898550724634,2.3463062128379075,1.1647130135661468,25.535206245097292
Duitama,Boyacá,15238,5.8121230164025,-73.0452854746375,30,96.40718562874252,0,0,65.63635626032348,70.64363969923492,1.7570861243203626,31.50182347512593,9.5,87.9746835443038,10.181958962446767,61.74345076784101,85.65599018464077,18.82716049382716,7.347021262933812,3.64708205138157,28.20664923371149
Durania,Norte de Santander,54239,7.720239733856,-72.65914540468,NaN,NaN,0,0,8.442330558858501,8.047312821002318,5.172413793103448,8.047311750948879,NaN,NaN,41.379310344827594,65.51724137931035,44.852256647054446,3.4482758620689653,1.1494252873563218,0.5705779505594321,16.234467694921943
Ebéjico,Antioquia,5240,6.310625977058334,-75.76141899305,NaN,NaN,0,0,23.341836734693878,38.52697566992519,9.43223443223443,38.52697482847367,NaN,NaN,19.642857142857146,100,90.45575553161589,3.571428571428571,2.459568733153639,1.2209368477098899,26.241053969419877
El Águila,Valle del Cauca,76243,4.914341323524286,-76.04409449415714,NaN,NaN,0,0,77.77777777777777,86.33159897621177,66.66666666666666,86.33159783267988,NaN,NaN,41.66666666666667,100,100,0,0,0,42.949337280665716
El Bagre,Antioquia,5250,7.594277154615834,-74.72749794424166,NaN,NaN,0,0,47.82986111111111,58.49778534402267,2.083333333333333,37.74667782630484,NaN,NaN,8.333333333333334,100,92.87723847877837,4.166666666666667,4.9588259509555535,2.461575171001117,25.565614738045294
El Banco,Magdalena,47245,9.105763208731304,-74.01415216841305,NaN,NaN,0,0,13.557151397770715,46.98532244779211,7.726555130045346,46.985321938233625,NaN,NaN,47.12276970341487,65.2605459057072,87.91786860495013,0,0.6410256410256411,0.3182069339658371,24.50267688769744
El Cairo,Valle del Cauca,76246,4.771677432665,-76.1973846524,NaN,NaN,0,0,11.111111111111112,30.501981169143118,4.761904761904762,30.50198083228172,NaN,NaN,33.33333333333334,66.66666666666666,86.34315295478201,0,0,0,21.156195454267365
El Calvario,Meta,50245,4.36412466365,-73.702831548825,NaN,NaN,0,0,100,100,NaN,NaN,NaN,NaN,0,NaN,NaN,0,0,0,25
El Cantón del San Pablo,Chocó,27135,5.334413641925,-76.71887447405,NaN,NaN,0,0,14.285714285714285,47.945873288225535,0,47.94587314806768,NaN,NaN,0,100,89.26008663803425,0,0,0,22.862879473815823
El Carmen,Norte de Santander,54245,8.649584227426667,-73.4203146368,NaN,NaN,0,0,6.648199445983378,38.56203064665725,4.125177809388336,38.56203053201075,NaN,NaN,52.631578947368425,71.05263157894737,80.45309629485875,0,0,0,23.042974065745774
El Carmen de Atrato,Chocó,27245,5.847510556681429,-76.17646389077143,NaN,NaN,0,0,6.944444444444444,24.295592248199135,2.898550724637681,24.29559202107659,NaN,NaN,25,41.666666666666664,73.81796823451089,0,2.331684550021708,1.1574547789551555,16.19203287703961
El Carmen de Bolívar,Bolívar,13244,9.705581852902352,-75.18755540985882,NaN,NaN,0,0,3.214124038026256,20.72422911338314,1.1100832562442182,20.724229077414677,NaN,NaN,23.40425531914893,44.680851063829785,80.11676990519442,2.127659574468085,2.127659574468085,1.0561762063546931,16.232891641010692
El Carmen de Chucurí,Santander,68235,6.670604566596667,-73.61348697458334,NaN,NaN,0,0,21.768707482993193,44.95283424747798,1.6483516483516485,44.952833922674266,NaN,NaN,10.714285714285715,100,94.42884698697051,17.857142857142858,8.928571428571429,4.432168008809874,27.702809852236655
El Carmen de Viboral,Antioquia,5148,6.071094997096,-75.33636797376,NaN,NaN,0,0,19.06243436252888,28.121511667965844,2.644456992283079,28.121509288681615,NaN,NaN,11.231884057971016,100,86.68056700131434,5.797101449275362,0.712547342995169,0.3537105082991943,23.145837580239355
El Castillo,Meta,50251,3.5993070511025,-73.857024435475,NaN,NaN,0,0,19.11111111111111,51.577601729174226,13.333333333333334,51.57760133293641,NaN,NaN,53.333333333333336,86.66666666666667,94.83411432040296,0,0,0,28.986923681274696
El Cerrito,Valle del Cauca,76248,3.65921188576,-76.21543008072,NaN,NaN,0,0,7.777777777777777,33.24018999302653,0.7246376811594203,33.240189845268446,NaN,NaN,6.25,100,88.85614447295175,0,0,0,21.53170453862868
El Charco,Nariño,52250,2.4167453981075,-78.10936040542501,NaN,NaN,0,0,51.69753086419753,52.45167863691052,0.46296296296296297,36.60223669254365,NaN,NaN,1.3888888888888893,100,94.77194283876055,0,0,0,24.61038888557178
El Cocuy,Boyacá,15244,6.40771623162,-72.4447293162,NaN,NaN,0,0,20.661157024793393,52.32423030052159,12.727272727272727,52.32423008947076,NaN,NaN,36.36363636363637,100,94.90918664052822,27.27272727272727,30.54185099578967,15.161060870298218,35.45101110868795
El Colegio,Cundinamarca,25245,4.560237297614,-74.43888861248,35,95.80838323353294,0,0,50.71296296296296,61.195622134039056,9.945887445887445,41.793432088091905,3,96.20253164556962,13.33333333333333,100,86.43743526941412,3,0.13605444312733278,0.06753780883196554,28.898951613240566
El Copey,Cesar,20238,10.2387925784,-73.9186584199,NaN,NaN,0,0,15.790123456790123,36.409929924669584,5.833333333333334,36.40992958355772,NaN,NaN,20.555555555555557,100,96.3245963697559,0,0,0,24.992139876373137
El Doncello,Caquetá,18247,1.679124,-75.284151,NaN,NaN,0,0,15.259259259259258,28.44766596505037,7.023809523809524,28.447665725911584,NaN,NaN,24.444444444444443,100,85.29957883545532,0,0,0,23.67952345709263
El Dorado,Meta,50270,3.714835985296667,-73.81548909096666,NaN,NaN,0,0,37.5,45.94520611101814,0,45.94520011463628,NaN,NaN,0,100,100,0,0,0,25.76774601009256
El Dovio,Valle del Cauca,76250,4.509348558311428,-76.30867290421429,NaN,NaN,0,0,66.51851851851852,64.72928089908469,31.666666666666664,47.09391766930849,NaN,NaN,24.444444444444446,100,100,0,0,0,30.466971664226552
El Espino,Boyacá,15248,6.48302740589,-72.4970073546,NaN,NaN,0,0,28.119092627599244,29.77428359413029,0.9881422924901186,29.774281105130907,NaN,NaN,8.695652173913047,100,76.95501578892751,0,0.6056673155959335,0.30065496161859756,22.312591704934064
El Guamo,Bolívar,13248,10.040501886305,-74.90195461301667,NaN,NaN,0,0,8.641975308641975,24.75919854261531,3.2679738562091507,24.75919840500746,NaN,NaN,22.222222222222214,100,78.28652059413447,5.555555555555555,8.88215196639939,4.409125257024665,23.274974845709338
El Litoral del San Juan,Chocó,27250,4.281474539354242,-77.12970267605758,NaN,NaN,0,0,12.499999999999996,35.71657206255482,4.545454545454546,35.71657196263252,NaN,NaN,25,100,94.90000652025132,0,0,0,24.787457557114607
El Molino,La Guajira,44110,10.6535025126,-72.9267433428,NaN,NaN,0,0,13.558961260110685,21.312612162035485,9.430438842203547,21.31261167234988,NaN,NaN,50.47892720306513,76.8199233716475,84.79278940107191,0,0,0,23.308513840012203
El Paso,Cesar,20250,9.676474015013333,-73.676390482,NaN,NaN,0,0,47.482638888888886,55.87021405207261,0.8454106280193238,41.160285254314836,NaN,NaN,6.25,81.94444444444444,93.0056262126213,0,0,0,23.65449671861594
El Paujil,Caquetá,18256,1.4552542508833333,-75.15928116616666,NaN,NaN,0,0,12.499999999999996,22.80097197441332,4.545454545454546,22.8009715974338,NaN,NaN,25,100,79.0058832251697,8.333333333333332,1.8319555635838152,0.9093879023574742,23.17518059493747
El Peñol,Nariño,52254,1.474495399962,-77.43200671018,NaN,NaN,0,0,63.4088027085257,72.3808159611557,36.07712976134029,53.96802646621723,NaN,NaN,22.210526315789473,69.18128654970761,81.02923690872436,3.684210526315789,0.8293329325686315,0.4116832039469145,27.699814870924143
El Peñón,Bolívar,13268,8.914029076567143,-73.92302697532857,NaN,NaN,0,0,52.85493827160494,61.16968684294865,3.015873015873016,22.33937357092667,NaN,NaN,16.66666666666667,44.44444444444444,70.0731269005891,4.166666666666666,1.6635572139303483,0.825794487213581,21.237639302680375
El Peñón,Cundinamarca,25258,5.264409652283334,-74.31091918766667,NaN,NaN,0,0,17.7196187116822,30.567946931097794,4.1798941798941796,30.56794568053798,NaN,NaN,20.634920634920636,81.48148148148148,88.93151110993394,2.7777777777777772,1.1090381426202323,0.5505296581423873,22.541156238868236
El Peñón,Santander,68250,6.09751118669,-73.879382781116675,NaN,NaN,0,0,27.854938271604937,58.40936847709514,1.507936507936508,58.40936834456527,NaN,NaN,16.66666666666667,72.22222222222223,85.03656345029455,4.166666666666666,1.6635572139303483,0.825794487213581,24.395792178511876
El Piñon,Magdalena,47258,10.351994714323077,-74.68629162404615,NaN,NaN,0,0,55.55555555555556,60.48483609542477,0,20.96967175507386,NaN,NaN,0,100,77.90713633049954,0,0,0,22.0449054378391
El Playón,Santander,68255,7.532040564942,-73.21896238506,NaN,NaN,0,0,69.72789115646259,73.1310631269917,2.197802197802198,19.39318893098352,NaN,NaN,4.761904761904764,100,77.55814746794746,0,0,0,23.41268263035839
El Retén,Magdalena,47268,10.624309474411112,-74.29532958288888,NaN,NaN,0,0,71.875,84.06760307441806,35.714285714285715,68.13520608308751,NaN,NaN,25,100,100,6.25,3.7562499999999996,1.8646130813063138,31.651873546624294
El Retorno,Guaviare,95025,2.2218452694525,-72.40927555230833,NaN,NaN,0,0,60,70.70537424670907,50,70.70537419994437,NaN,NaN,25,100,99.52109265354662,10,5.25713112591107,2.609654700170748,38.46302297512159
El Roble,Sucre,70233,9.08198498893,-75.12450423562143,NaN,NaN,0,0,54.54545454545455,57.36102604048919,50,57.36102564991402,NaN,NaN,25,100,85.46588476472867,0,0,0,33.852033213697496
El Rosal,Cundinamarca,25260,4.84675631745,-74.25857914595,NaN,NaN,0,0,61.11111111111111,74.96870663618938,6.666666666666667,49.937413190274015,NaN,NaN,8.333333333333329,100,98.68796641236001,16.666666666666664,7.055555555555555,3.50239765318398,28.346826135959397
El Rosario,Nariño,52256,1.7794613920285716,-77.35156754814285,NaN,NaN,0,0,45.247933884297524,53.2036362917967,8.05194805194805,29.80545327263778,NaN,NaN,15.530303030303031,100,87.09820631949623,0,0,0,24.461997829153947
El Santuario,Antioquia,5697,6.13704685813,-75.2658497944,32,96.16766467065868,0,0,40.83318028772574,51.99651838751424,5.202020202020202,27.994777111717113,8,89.87341772151899,16.06060606060606,65.15151515151516,75.86202448949892,1.5151515151515151,0.13468018648018645,0.06685562396105942,27.108028301384024
El Tablón de Gómez,Nariño,52258,1.43477169291,-77.0516945879,NaN,NaN,0,0,19.35130396668858,26.244888347528814,2.1367521367521367,26.24488713920475,NaN,NaN,10.256410256410257,100,84.6594753614714,0,0.4662004662004662,0.23142322470242696,22.12240488725037
El Tambo,Cauca,19256,2.4508167495257145,-76.87231223791785,NaN,NaN,0,0,15.688994583168183,57.34279462465174,6.288998357963875,57.34279443678162,NaN,NaN,22.126436781609193,100,97.84856536478671,0,0,0,27.2087081556527
El Tambo,Nariño,52260,1.40764342171,-77.3902046633,NaN,NaN,0,0,59.28894173602854,74.90026334217032,53.977832512315274,74.90026280323751,NaN,NaN,36.896551724137936,100,99.52692826876411,0,0,0,38.599137962128744
El Tarra,Norte de Santander,54250,8.59345876695625,-72.94451036166251,NaN,NaN,0,0,14.285714285714285,33.68628743590336,0,33.686287292959214,NaN,NaN,0,100,91.89460880710699,0,0,0,21.80605550261133
El Zulia,Norte de Santander,54261,8.098054379106667,-72.58296873551112,NaN,NaN,0,0,18.886961647904407,26.568555661196875,13.071743071743072,26.56855534315921,NaN,NaN,47.97979797979797,96.29629629629629,90.78428709615244,0,0,0,26.68978561391737
Elías,Huila,41244,2.00494651947,-75.9526136437,NaN,NaN,0,0,48,52.33332325336319,38.888888888888886,52.33332199013436,NaN,NaN,33.333333333333336,100,96.53461519540666,0,0,0,33.55365097009019
Encino,Santander,68264,6.13740249683,-73.0987380213,NaN,NaN,0,0,17.3241288625904,27.187395324975576,5.897435897435898,27.18739431511402,NaN,NaN,19.87179487179486,100,83.99338053484246,8.333333333333332,0,0,23.873406256815684
Enciso,Santander,68266,6.656598545585,-72.70320652405,NaN,NaN,0,0,75,75.16435354273193,0,50.328705295507284,NaN,NaN,0,100,100,0,0,0,26.151304867521084
Entrerrios,Antioquia,5264,6.56648144846,-75.5178008012,NaN,NaN,0,0,18.952380952380953,27.866020366628693,12.967032967032967,27.866019900835425,NaN,NaN,31.42857142857143,100,74.05588007175501,26.666666666666668,5.802461001738108,2.8803579867183,27.329033767408376
Envigado,Antioquia,5266,6.154151792923043,-75.54186751680434,19.75,97.63473053892216,0,0,73.92687074829932,82.54722864861385,3.7543859649122804,51.132239874906034,3,96.20253164556962,2.857142857142857,100,94.82508300701927,11.934523809523808,6.557969226611902,3.2553943978022764,34.631740448029895
Espinal,Tolima,73268,4.1835514835100005,-74.94836239633334,47.5,94.311377245509,0,0,53.81016779363887,64.75748485232518,16.811706811706813,56.92581336386489,13.5,82.91139240506328,13.801652892561984,92.42424242424242,95.2106504964143,17.757575757575758,5.261776416547774,2.61196063552853,32.34010916798432
Facatativá,Cundinamarca,25269,4.8275898939,-74.34223457437646,73,91.25748502994013,0,0,47.5568573127974,62.91978370123495,0.4701779701779702,54.67973469848992,12,84.81012658227847,2.37603305785124,100,98.54217255094372,0.625,0,0,27.47036170760677
Falan,Tolima,73270,5.09284265656,-74.97806721543333,NaN,NaN,0,0,58.51851851851852,66.4151211756279,16.666666666666664,49.62268059036306,NaN,NaN,11.111111111111114,100,100,0,0,0,27.77174502270018
Filadelfia,Caldas,17272,5.282956215385714,-75.54873503147142,NaN,NaN,0,0,47.07644495706779,50.03573119975184,9.235294117647058,25.05359486112977,NaN,NaN,19.444444444444446,62.745098039215684,67.50382885489016,1.9607843137254901,1.9607843137254901,0.9733388568366781,21.76736443273215
Filandia,Quindío,63272,4.690384217705,-75.6833658936,NaN,NaN,0,0,45.26605231866825,52.824791954904406,0.90311986863711,37.0997193923186,NaN,NaN,9.482758620689655,91.95402298850574,79.53903958227541,0,0,0,23.238249065802364
Firavitoba,Boyacá,15272,5.66892215993,-72.9933614508,NaN,NaN,0,0,46.29629629629629,58.298629840894925,11.111111111111109,58.29862881373792,NaN,NaN,11.111111111111114,100,100,0,1.7834102258169937,0.885289859938453,29.95325894956081
Flandes,Tolima,73275,4.2350967336859995,-74.834463626,NaN,NaN,0,0,67.8,79.32012527391693,34.81481481481482,65.53354150489771,NaN,NaN,14,100,97.46960740188713,2,1.6666666666666667,0.8273380283111764,30.45316211808327
Florencia,Caquetá,18001,1.6759983438845454,-75.54067328223637,82.26190476190476,90.14827487881381,0,0,48.71537169099224,55.79862503206318,9.065345580009097,38.11807421519804,3.9095238095238094,95.05123568414707,17.9293681495388,88.19175042144123,88.51831911292494,1.8497687789026371,1.9454254437581853,0.9657146705191755,30.923619926902283
Florencia,Cauca,19290,1.70594081116,-77.0678513616,NaN,NaN,0,0,12.5,14.294665751768301,0,14.294664577021754,NaN,NaN,0,100,66.82952547251205,0,0,0,17.602199202207306
Floresta,Boyacá,15276,5.85841334535,-72.93132951655,NaN,NaN,0,0,35.3305785123967,38.86242098001935,6.363636363636363,38.86241977680472,NaN,NaN,22.72727272727273,100,93.43627987974835,0,0,0,26.974562587552136
Florián,Santander,68271,5.80087965797,-73.92688180643333,NaN,NaN,0,0,22.916666666666664,40.66891390738169,0,40.66891098386553,NaN,NaN,0,100,91.32382871188219,0,0,0,23.173582662357322
Florida,Valle del Cauca,76275,3.3044563100961537,-76.24231193157692,NaN,NaN,0,0,16.72222222222222,31.381065162630236,0.9523809523809524,31.38106451368006,NaN,NaN,6.666666666666664,100,94.70157235323134,25,12.5,6.205035212333823,26.738994779042294
Floridablanca,Santander,68276,7.065554132294166,-73.082999213975,NaN,NaN,0,0,80.67129629629629,86.1267605666458,23.61111111111111,63.004693814252974,NaN,NaN,6.597222222222222,100,96.63403778384891,7.291666666666666,7.921075023808368,3.932043955381512,29.27336323333008
Fomeque,Cundinamarca,25279,4.49404289177,-73.8968605995,NaN,NaN,0,0,14.222222222222223,21.961097043402553,6.507936507936508,21.961096382928634,NaN,NaN,26.666666666666664,100,82.60092792376388,0,0,0,22.905350033090166
Fonseca,La Guajira,44279,10.865873916138462,-72.82609976804615,NaN,NaN,0,0,60.339187327823694,67.8683279450112,22.285714285714285,48.58932422509379,NaN,NaN,18.522727272727273,95.45454545454545,90.89824405594796,4.166666666666666,3.2404597339791126,1.6085733402792228,28.570000650828817
Fortul,Arauca,81300,6.71650556742125,-71.618967497875,NaN,NaN,0,0,64.36980609418282,68.70384797217102,1.1695906432748537,37.40769461872128,NaN,NaN,5.2631578947368425,71.05263157894737,81.87858656208823,1.3157894736842104,0.6578947368421052,0.3265808006491486,23.198861942220123
Fosca,Cundinamarca,25281,4.341697032095,-73.92594309079999,NaN,NaN,0,0,33.545918367346935,30.538690521551658,25.52910052910053,30.53868790225694,NaN,NaN,32.142857142857146,64.28571428571428,79.84847037962808,0,0,0,24.17188647510897
Francisco Pizarro,Nariño,52520,2.12131332554,-78.59781400508,NaN,NaN,0,0,9,18.424781572164587,4.2105263157894735,18.424781462328983,NaN,NaN,30,50,77.1794347069056,0,0,0,17.164976599532697
Fredonia,Antioquia,5282,5.900460017165,-75.68952486873333,NaN,NaN,0,0,22.916666666666664,27.12814653129289,2.272727272727273,27.12814354228727,NaN,NaN,12.5,100,84.50462866712513,4.166666666666666,0,0,23.044439618588967
Fresno,Tolima,73283,5.190927642396667,-75.06924883153333,NaN,NaN,0,0,53.982402878506775,58.224948681807476,14.031801531801532,47.781183094003715,NaN,NaN,14.753246753246753,94.88636363636364,94.62504886180366,7.532467532467533,4.9411919530346555,2.4528216047584457,29.06560460252697
Frontino,Antioquia,5284,6.74221945998,-76.228717388175,NaN,NaN,0,0,54.13223140495868,60.771799765057715,3.896103896103896,21.543599331371194,NaN,NaN,18.181818181818183,68.18181818181819,76.52978327188399,13.636363636363635,3.4475730182062487,1.7113849580049416,23.971365785392038
Fuente de Oro,Meta,50287,3.36923966318,-73.55576359292222,NaN,NaN,0,0,23.437500000000004,37.28297300171563,14.448051948051948,37.282972021516784,NaN,NaN,37.5,100,92.97837117889677,4.166666666666666,1.8568033273915627,0.9217224023074604,28.41746259318455
Fundación,Magdalena,47288,10.4395044309125,-74.0291302806375,26,96.88622754491017,0,0,41.1764705882353,50.312579448647725,6.25,25.468869067456097,15,81.0126582278481,23.529411764705884,82.35294117647058,73.41515532264063,0,0,0,28.21115134386277
Funes,Nariño,52287,0.9704142035009999,-77.4532182768,NaN,NaN,0,0,12.92361111111111,22.490116133858002,3.6904761904761907,22.49011428405457,NaN,NaN,16.25,100,81.28253429995408,0,0,0,21.512430703218122
Funza,Cundinamarca,25286,4.7409332561460005,-74.22221224516,74,91.1377245508982,0,0,64.90670727438213,81.21979513269066,12.692138779095298,62.439590025691466,16,79.74683544303798,9.90338164251208,100,96.28555279292641,13.768115942028984,1.515151515151515,0.7521254802828876,33.536291014571155
Fúquene,Cundinamarca,25288,5.412996408756666,-73.77421275323333,NaN,NaN,0,0,56.79012345679013,64.86539752969682,2.7777777777777777,29.730794737085475,NaN,NaN,5.555555555555557,100,90.57828488493615,0,5.471298310771693,2.715967894041673,24.50694309801935
Fusagasugá,Cundinamarca,25290,4.33161325389,-74.42574633175714,33.44444444444444,95.99467731204258,0,0,56.0479797979798,65.74491828275117,0.10351966873706005,46.17058483970992,10.972222222222221,86.11111111111111,0.7575757575757585,100,97.80604756719589,31.25,8.073384289034594,4.007650703692986,33.143700492125056
Gachala,Cundinamarca,25293,4.7069850731525005,-73.489415661725,NaN,NaN,0,0,11.74015384988716,28.599061507058998,3.2430213464696225,28.59906129010058,NaN,NaN,19.211822660098527,74.13793103448276,80.92305474054108,14.039408866995073,3.5098524061133936,1.742300621602256,21.55878245756808
Gachancipá,Cundinamarca,25295,4.98306442184,-73.8829352591,NaN,NaN,0,0,4.222222222222223,9.085148017809509,0.9195402298850575,9.085147798237028,NaN,NaN,13.333333333333329,26.666666666666668,52.21679483229271,6.666666666666667,0.9388890000000001,0.46606714443783126,10.410484373937637
Gachantivá,Boyacá,15293,5.75189108211,-73.5490923938,37,95.5688622754491,0,0,49.382716049382715,52.410776081116886,11.666666666666666,28.61616213992859,1,98.73417721518987,24.074074074074073,100,96.19593843272663,8.333333333333332,5.514100190506856,2.7372148677145343,33.838619933607994
Gachetá,Cundinamarca,25297,4.83246893694,-73.605326227,NaN,NaN,0,0,21.846153846153847,24.306641662397503,10,24.30664045349752,NaN,NaN,20,100,97.6677445379056,10,7.831897784699487,3.887776122676766,26.867292177621202
Galán,Santander,68296,6.63841500205,-73.2877647263,NaN,NaN,0,0,50,56.32788908397718,0,56.32788098828786,NaN,NaN,0,100,100,0,0,0,27.847989916725197
Galapa,Atlántico,8296,10.8973947898,-74.898289569,NaN,NaN,0,0,60,65.40466932585167,0,30.809338611775257,NaN,NaN,0,100,97.11463478553853,0,0,0,23.76927151987463
Galeras,Sucre,70235,9.123120030666666,-74.9482312048,NaN,NaN,0,0,77.92592592592592,80.39148159320312,45.18518518518518,60.782962074234774,NaN,NaN,18.333333333333336,100,93.69603226802566,0,0,0,30.3264863253698
Gama,Cundinamarca,25299,4.73977964971,-73.58416736999999,NaN,NaN,0,0,34.80257116620753,43.42567362162483,19.39393939393939,43.4256718942524,NaN,NaN,30.303030303030305,100,95.35970807187641,0,0,0,29.389538414243496
Gamarra,Cesar,20295,8.310554493851429,-73.74367546465714,NaN,NaN,0,0,29.545454545454547,39.3143820032595,0,39.31438097951912,NaN,NaN,0,100,84.4621513944223,0,0,0,23.029271631194213
Gambita,Santander,68298,5.906702198,-73.3645214438,NaN,NaN,0,0,22.314049586776864,24.12058699539478,14.545454545454545,24.120586685134562,NaN,NaN,45.45454545454546,100,89.2332556848102,9.090909090909092,0.7336553762466793,0.3641885954662932,27.80514957541854
Gameza,Boyacá,15296,5.80233780495,-72.805529354,NaN,NaN,0,0,66.66666666666667,76.53189830206088,0,64.79784390547341,NaN,NaN,0,100,100,0,0,0,27.41199075473281
Garagoa,Boyacá,15299,5.08324346272,-73.3644275636,50,94.01197604790418,0,0,60.22222222222222,65.18304875408194,0.4761904761904762,30.36609442883395,8,89.87341772151899,1.6666666666666679,100,76.64719735544135,4.444444444444445,0.5,0.24820140849335293,27.796680096681158
Garzón,Huila,41298,2.1649076879523528,-75.60225522361765,18,97.8443113772455,0,0,67.61318179997195,71.9506170739866,6.3942414174972315,32.681479852825824,4,94.9367088607595,9.20219638242894,93.02325581395348,91.42722858601256,11.969696969696969,3.7500000000000004,1.8615105637001472,28.252782962215594
Génova,Quindío,63302,4.20747788779,-75.7898166081,NaN,NaN,0,0,18.75,20.921367016564204,7.142857142857142,20.921364967894903,NaN,NaN,25,100,81.34715025906736,12.5,4.166666666666666,2.0683450707779407,24.71785328690303
Gigante,Huila,41306,2.365318666784,-75.5108895444,NaN,NaN,0,0,50.51927812447293,55.2643251393669,7.334570191713049,36.091891199685584,NaN,NaN,9.766233766233766,100,95.92690525002126,2,1.274108994170807,0.632471293854487,25.8399500115739
Ginebra,Valle del Cauca,76306,3.727190410746,-76.26368413072,NaN,NaN,0,0,16.213017751479292,18.76295400254615,2.564102564102564,18.762952232410555,NaN,NaN,15.384615384615387,80.76923076923077,89.19024671769476,0,0,0,20.262197017242627
Giraldo,Antioquia,5306,6.687579675665001,-75.95055192255,NaN,NaN,0,0,9.5,9.195536912197143,4.736842105263158,9.195536463621101,NaN,NaN,30,50,59.166902840883125,0,0,0,14.781752896213039
Girardot,Cundinamarca,25307,4.344260775622,-74.80421069558,NaN,NaN,0,0,41.09090909090909,63.60547332731077,3.3333333333333335,51.47396363573037,NaN,NaN,5,100,92.66110693064623,5.757575757575758,2.929052597402597,1.453989960452877,25.962075539239613
Girardota,Antioquia,5308,6.384023219845833,-75.44533034504167,NaN,NaN,0,0,42.81481481481482,66.33826811346002,6.507936507936508,49.507402056094364,NaN,NaN,21.11111111111111,100,93.38305691602365,4.444444444444445,4.0116939783313725,1.9914161917322983,27.17931008513947
Girón,Santander,68307,7.0833135862750005,-73.189138691,27,96.76646706586827,0,0,63.54221175649747,74.72780197812105,20.866402116402114,58.932677403397065,6,92.40506329113924,10.531135531135531,100,97.74225652979933,2.9761904761904763,2.003927318144934,0.99475516576376,30.305143078937608
Gómez Plata,Antioquia,5310,6.7416212113,-75.1973074008,NaN,NaN,0,0,52.25694444444444,60.261857279874484,0.36231884057971014,20.523714378641436,NaN,NaN,2.0833333333333286,100,60.86346029541008,8.333333333333332,2.3848897970518252,1.1838660134593793,22.237919433590154
González,Cesar,20310,8.413416854346,-73.37103803693999,NaN,NaN,0,0,6.338901455971014,8.218591472896549,3.0501517181892397,8.218590993975964,NaN,NaN,39.512383900928796,67.6470588235294,46.648483052775724,0,0,0,15.58323367493552
Gramalote,Norte de Santander,54313,7.8975895080475,-72.79518694565,NaN,NaN,0,0,14.285714285714285,31.6127809699204,0,31.612779426392557,NaN,NaN,0,100,95.9373255730233,14.285714285714285,0.3004120714833028,0.14912539854112314,23.324642962217883
Granada,Antioquia,5313,6.1182185996100005,-75.1237760874,NaN,NaN,0,0,50.92802172928927,56.03605488027072,0.8007320979180965,12.072109733527023,NaN,NaN,17.02127659574468,64.8936170212766,62.543692094255874,2.6595744680851063,0.9550222160413304,0.4740757183278028,20.881186019498564
Granada,Cundinamarca,25312,4.512080953176667,-74.35853145726666,NaN,NaN,0,0,50.92802172928927,56.03605488027072,50.40036604895905,56.036054866763514,NaN,NaN,42.02127659574468,82.4468085106383,81.27184604712794,2.6595744680851063,0.9550222160413304,0.4740757183278028,33.381186019498564
Granada,Meta,50313,3.4770466779757143,-73.76348894935714,NaN,NaN,0,0,50.88727931190584,63.433101242154976,0.4210889293399514,39.05516830358306,NaN,NaN,8.510638297872342,88.29787234042553,82.54959623438226,5.319148936170213,1.7819473079901211,0.8845636634081732,23.961619387453666
Guacamayas,Boyacá,15317,6.4596665157,-72.5008119968,NaN,NaN,0,0,53.73961218836565,57.307089214508494,2.3391812865497075,14.614177899639127,NaN,NaN,7.894736842105267,100,57.53771797242214,0,0,0,21.489080715860485
Guacarí,Valle del Cauca,76318,3.7780688125733333,-76.30045690446667,NaN,NaN,0,0,53.03030303030303,67.92777457152789,0,51.89166121158736,NaN,NaN,0,100,95.19653623315386,3.0303030303030307,0,0,25.374491344324532
Guachené,Cauca,19300,3.156045404642857,-76.39955831981905,NaN,NaN,0,0,24.948347107438018,29.74031083664795,10.15151515151515,29.740310047990164,NaN,NaN,21.590909090909086,100,86.11163597167189,0,0,0,24.776610741652917
Guachetá,Cundinamarca,25317,5.3837411918999996,-73.6870982163,NaN,NaN,0,0,24.999999999999996,52.92386919805849,0,52.92386840901691,NaN,NaN,0,100,99.08967767307048,25,0,0,27.455776988284452
Guachucal,Nariño,52317,0.983954098665125,-77.715396203325,NaN,NaN,0,0,57.61256883705863,64.24162247555283,6.374458874458874,37.42283884181654,NaN,NaN,12.414965986394558,86.9047619047619,92.38299167885604,0,0,0,24.77315520682272
Guadalajara de Buga,Valle del Cauca,76111,3.889197470076316,-76.26604867571052,5.666666666666667,99.32135728542914,0,0,55.29257067718606,60.304480332704934,13.461538461538462,40.456719537301986,1.3333333333333333,98.31223628691983,23.076923076923077,100,100,0,0,0,32.6314126008948
Guadalupe,Antioquia,5315,6.825928065588,-75.21470712478,NaN,NaN,0,0,5.86734693877551,19.682961638745752,2.380952380952381,19.68296149917187,NaN,NaN,28.57142857142857,53.57142857142857,76.82867538526116,0,0,0,16.99116304423563
Guadalupe,Huila,41319,2.01486400392,-75.71616307114999,NaN,NaN,0,0,51.95578231292517,67.71801200630368,1.1904761904761905,51.577017789405616,NaN,NaN,9.523809523809524,76.78571428571428,88.41433769263058,33.333333333333336,10.954933333333335,5.438059766568231,30.318029224359126
Guadalupe,Santander,68320,6.23031937729,-73.41166448195,NaN,NaN,0,0,5.86734693877551,19.682961638745752,2.380952380952381,19.68296149917187,NaN,NaN,28.57142857142857,53.57142857142857,76.82867538526116,0,0,0,16.99116304423563
Guaduas,Cundinamarca,25320,5.1191573602750005,-74.60484330948333,22,97.36526946107784,0,0,42.18631404958678,52.75304353995397,0.6244588744588745,40.94130143638531,6,92.40506329113924,4.436363636363635,100,80.28636350484474,0,0.07365692960769402,0.03656350734785081,26.273047166814294
Guaitarilla,Nariño,52320,1.134009666915,-77.5478169295,NaN,NaN,0,0,64.93055555555556,69.6016363504633,0.7575757575757576,39.2032714404034,NaN,NaN,2.0833333333333357,100,87.52972510817332,0,0,0,24.38719778838425
Gualmatán,Nariño,52323,0.9155661369679999,-77.57679306245001,NaN,NaN,0,0,33.31122448979592,39.28110579233443,1.3865546218487395,39.28110176561211,NaN,NaN,10,88.57142857142857,95.4794984896071,0,0,0,24.36634654227407
Guamal,Magdalena,47318,9.230307257914546,-74.17723163484091,NaN,NaN,0,0,53.25,56.00715869287678,1.5789473684210527,12.01431728092515,NaN,NaN,7.5,100,60.258110741757996,2.5,0.625,0.3102517606166912,21.691903591689364
Guamal,Meta,50318,3.84837088491,-73.76014229185,NaN,NaN,0,0,28.25,31.535788534375417,0.7894736842105263,31.5357832680749,NaN,NaN,7.5,100,80.129055370879,2.5,0.625,0.3102517606166912,22.876324486371058
Guamo,Tolima,73319,4.051610654308889,-74.9323682171111,NaN,NaN,0,0,51.62037037037037,57.66339522207633,24.542483660130717,49.19607293841385,NaN,NaN,18.055555555555554,100,93.1109566349898,0.9259259259259259,1.4803586610665649,0.7348542095041108,29.48712062337266
Guapi,Cauca,19318,2.513132062234,-77.72509085738666,NaN,NaN,0,0,17.171280276816606,32.28129505249779,1.8382352941176472,32.28129474085346,NaN,NaN,14.705882352941174,79.41176470588235,83.35052765438456,0,0,0,20.796271394240012
Guapotá,Santander,68322,6.30858801303,-73.3206990858,NaN,NaN,0,0,64,77.06969486714787,55,77.06969467394796,NaN,NaN,43.333333333333336,100,100,10,4.999725761488805,2.4818779521640457,41.53496653764855
Guaranda,Sucre,70265,8.411011254477,-74.66318332799,NaN,NaN,0,0,76.85185185185185,79.90573196784055,0,39.71719525851021,NaN,NaN,0,100,94.11741599229629,8.333333333333334,0.8120138869613536,0.40308598091994047,25.546529304697497
Guarne,Antioquia,5318,6.23933797377,-75.44058763153333,NaN,NaN,0,0,16.666666666666664,27.776558135234065,0,27.77655797974586,NaN,NaN,0,100,86.9001730060704,16.666666666666664,21.92916897051214,10.885701251139688,25.529539517844512
Guasca,Cundinamarca,25322,4.843482104416667,-73.90919864896667,NaN,NaN,0,0,54.86111111111111,59.64858059113264,1.5151515151515151,19.297160805990078,NaN,NaN,4.166666666666671,100,69.897147277385,12.5,5.138888425925925,2.550958690810008,23.82475953471951
Guatapé,Antioquia,5321,6.235646463315,-75.15765663580001,NaN,NaN,0,0,12.847222222222221,26.35946368145626,3.3333333333333335,26.359462741045135,NaN,NaN,20.833333333333332,70.83333333333333,79.67335494298312,6.25,0.9259259259259259,0.4596322379506535,20.137781728230745
Guataquí,Cundinamarca,25324,4.481889319036667,-74.79795987743333,NaN,NaN,0,0,54.76190476190476,57.453596609606045,3.8461538461538463,36.18039148704578,NaN,NaN,14.285714285714286,89.28571428571428,90.98136420363952,0,0,0,24.93121550432396
Guatavita,Cundinamarca,25326,4.93413970308,-73.8328740383,NaN,NaN,0,0,10.250229568411386,23.918064072307434,4.112554112554113,23.918063732495067,NaN,NaN,21.590909090909086,100,82.1516741813785,4.166666666666666,4.166666666666666,2.0683450707779407,22.947737220879254
Guateque,Boyacá,15322,5.00732089514,-73.4712069731,13,98.44311377245509,0,0,40.91540404040404,47.80995733525537,8.630952380952381,34.76244484455986,1.5,98.10126582278481,24.1969696969697,87.5,83.94730386136092,3.3333333333333335,0.7909090909090908,0.39260950070766726,27.865824031582076
Guática,Risaralda,66318,5.3067117972125,-75.809428576375,NaN,NaN,0,0,73.33333333333333,74.49918962681387,0,23.497566236281283,NaN,NaN,0,100,93.08738239909306,13.333333333333334,3.3333333333333335,1.654676056622353,25.501484225739446
Guavatá,Santander,68324,5.95413607642,-73.7008020955,NaN,NaN,0,0,24.999999999999996,38.47400916621065,0,38.474007366513746,NaN,NaN,0,100,91.5879220415831,8.333333333333332,1.893939393939394,0.9401568503536095,24.202669162310915
Guayabal de Siquima,Cundinamarca,25328,4.859437026745,-74.4703576451,NaN,NaN,0,0,60.49382716049382,72.4454852769798,11.11111111111111,44.89097041296182,NaN,NaN,22.22222222222222,88.88888888888889,98.23461838735828,0,0,0,26.52534944121591
Guayabetal,Cundinamarca,25335,4.231807350015714,-73.82836140458572,NaN,NaN,0,0,4.3478260869565215,24.25973764863836,0,24.259737445737453,NaN,NaN,0,100,77.75347975929134,0,0,0,18.760094863171474
Guayatá,Boyacá,15325,4.96712253068,-73.4896964004,NaN,NaN,0,0,37.5,41.632182221909346,0,41.63217330075467,NaN,NaN,0,100,100,0,0,0,25.375652929264486
Güepsa,Santander,68327,6.02484917625,-73.5753259533,NaN,NaN,0,0,24.489795918367342,28.0685109752968,18.681318681318682,28.06851062583694,NaN,NaN,64.28571428571428,92.85714285714286,95.693177390565893,7.142857142857142,0,0,30.110774295569364
Güicán,Boyacá,15332,6.46286375486,-72.4117626054,NaN,NaN,0,0,11.111111111111112,23.966817881261573,4.761904761904762,23.96681765961059,NaN,NaN,26.66666666666667,100,82.87702393635703,6.666666666666667,2.324561407407407,1.1539188308956183,23.59351556929735
Gutiérrez,Cundinamarca,25339,4.22904233034,-73.99415978623334,NaN,NaN,0,0,5.46875,13.442106088637468,2.4193548387096775,13.442105754601302,NaN,NaN,28.125,46.875,59.04869372435204,12.5,6.25,3.1025176061669115,16.111947477987826
Hacarí,Norte de Santander,54344,8.335742525056,-73.10451533218,NaN,NaN,0,0,28.000000000000004,37.68125069715289,10,37.68125032307729,NaN,NaN,20,100,100,0,0,0,26.880113699741173
Hatillo de Loba,Bolívar,13300,8.97246552928909,-74.18897112991819,NaN,NaN,0,0,58.33333333333333,78.55977184588784,0,57.119543656770055,NaN,NaN,0,100,96.32640645078064,0,0,0,24.777846218601045
Hato,Santander,68344,6.54296388647,-73.3081448099,NaN,NaN,0,0,50,59.77105302947784,0,59.77105043103917,NaN,NaN,0,100,100,0,0,0,28.16100482086162
Hato Corozal,Casanare,85125,6.091407436528462,-71.47781053034615,NaN,NaN,0,0,88.28571428571429,91.39328429986041,77.22222222222223,84.93824749058317,NaN,NaN,28.095238095238095,100,98.87497762932969,0,0,0,36.153356573661
Hatonuevo,La Guajira,44378,11.096375300727273,-72.73913030258181,NaN,NaN,0,0,17.045454545454547,36.93605214242283,0,36.93605139057862,NaN,NaN,0,100,95.90614239528824,9.090909090909092,0,0,23.543505288552247
Heliconia,Antioquia,5347,6.1984285326899995,-75.74403561792,NaN,NaN,0,0,18.822337962962962,24.214285355906334,11.249999999999998,24.214284981656782,NaN,NaN,38.54166666666667,93.75,81.02890496420807,0,0,0,24.327926813613097
Herrán,Norte de Santander,54347,7.50654086497,-72.4835193432,NaN,NaN,0,0,18,29.97031043681671,8.88888888888889,29.97030994183813,NaN,NaN,30,100,88.91788720576263,20,10,4.964028169867059,28.249192245575934
Herveo,Tolima,73347,5.10735274731,-75.2251880311,NaN,NaN,0,0,100,100,NaN,NaN,NaN,NaN,0,NaN,NaN,0,0,0,25
Hispania,Antioquia,5353,5.79946157519,-75.9065882653,NaN,NaN,0,0,13.619614512471653,24.474309527119733,6.401931401931401,24.474309083152434,NaN,NaN,32.142857142857146,95.83333333333333,78.09186208182174,0,0,0,22.77853709086682
