municipio_entidad,departamento_entidad,codigo_municipio_ent,latitud,longitud,oferentes_prom,ind_prom_oferentes,perc_contr_cerrada_num,perc_contr_cerrada_val,HHI_cant,HHI_val,ID_cant,ID_val,ofertas_prom,ind_prom_ofertas,ganadoras,IC4K_cant,IC4K_val,perc_tiempo_adiciones,perc_valor_adiciones,ind_valor_adiciones,ind_riesgo_corrupcion
Abejorral,Antioquia,5002,5.766288847875,-75.46568902515,NaN,NaN,77.77777777777777,92.25515305864435,11.11111111111111,65.43924762139085,0,65.43924751745675,NaN,NaN,0,100,92.03789490912484,22.22222222222222,2.5916079365079363,1.2864814802076436,42.24740873790788
Abrego,Norte de Santander,54003,7.961907205955001,-73.16759074219999,NaN,NaN,96.875,97.56060933931607,7.66625,16.645074236660847,2.6666666666666665,16.64507384671357,NaN,NaN,20.25,72,70.93707890743514,3.125,0.48615820996574827,0.24133030492821186,35.31392433317934
Abriaquí,Antioquia,5004,6.653143084985,-76.0770481838,NaN,NaN,71.42857142857142,73.00155901365216,9.183673469387754,12.094336833155456,2.197802197802198,12.094336235275122,NaN,NaN,14.285714285714292,100,60.89509229684567,0,0,0,31.18970450228445
Acacias,Meta,50006,3.9882049999999998,-73.765802,32.833333333333336,96.06786427145708,77.4928774928775,77.03765611627625,47.21992110453649,54.8323832437115,17.108308358308356,49.186429437839344,9,88.60759493670886,15.484330484330485,89.42307692307692,95.11823808849772,12.98076923076923,3.3932135728542914,1.6844007762023951,45.36295118270468
Acandí,Chocó,27006,8.4879568591975,-77.261832437675,17,97.96407185628743,25,47.047864798443264,58.33333333333333,68.60631129649694,0,37.21262243179562,6,92.40506329113924,0,100,96.41919682513222,0,0,0,39.614183978569734
Acevedo,Huila,41006,1.781451326058,-75.93934421952,NaN,NaN,97.5,98.03264963406492,69.11574074074073,75.49015275118106,43.27838827838828,68.48733798088499,NaN,NaN,27.962962962962965,90.71428571428571,95.97766909609217,7.685185185185184,13.031091865627104,6.468670710509842,55.22596450781626
Achí,Bolívar,13006,8.578533003649445,-74.51769117621112,NaN,NaN,96.29629629629629,88.2215414677232,46.91358024691358,53.71507025213744,7.5,30.572603343717518,NaN,NaN,16.666666666666668,100,94.42761088231083,0,0,0,44.22105110769191
Agrado,Huila,41013,2.2240625972133334,-75.7258356464,NaN,NaN,100,100,72.03611111111111,79.03469185796638,58.878205128205124,73.79336454777099,NaN,NaN,38.16666666666667,86.25,88.11192613763487,3.5,2.6844423020201438,1.3325647207610767,55.758780151927034
Agua de Dios,Cundinamarca,25001,4.37531201654,-74.6692177783,NaN,NaN,77.77777777777777,77.77777777777777,53.74779541446208,66.03710824030179,9.05982905982906,49.05566167810113,NaN,NaN,13.227513227513228,100,96.80550209933824,12.301587301587302,6.163422659081128,3.059540370247565,43.787087065520424
Aguachica,Cesar,20011,8.191252773696364,-73.66033232908183,23,97.24550898203593,74.07407407407408,73.84629191587018,66.74074074074073,70.82470510365873,1.0526315789473684,34.355581513894116,5.5,93.0379746835443,2.7777777777777777,100,94.75152453321903,6.19047619047619,2.9033703434864817,1.4412412172623494,45.0914147650766
Aguada,Santander,68013,6.16223753324,-73.5232368382,NaN,NaN,100,100,28.000000000000004,37.5322062011572,10,37.53220538656756,NaN,NaN,20,100,100,0,0,0,45.04838238192338
Aguadas,Caldas,17013,5.628918624415,-75.48925278978,NaN,NaN,96.66666666666667,93.96942766947761,24.746666666666666,38.11802562914324,0.7619047619047619,38.11802294648088,NaN,NaN,12,86.66666666666667,85.40350446696591,5.333333333333333,2.377777619047619,1.1803355082631806,40.65675536255779
Aguazul,Casanare,85010,5.146935901302,-72.59979023867,NaN,NaN,96.875,91.96477873880873,24.535123966942148,31.68710707306059,4.105571847507331,31.687103439173832,NaN,NaN,22.53787878787879,83.33333333333333,82.39599543545468,3.0303030303030307,0.7746031746031746,0.3845151979198611,40.14765550780106
Agustín Codazzi,Cesar,20013,9.941778567106,-73.24338540136,NaN,NaN,97.22222222222221,99.86614087533712,69.9074074074074,80.55095686029809,1.5151515151515151,41.652870561038135,NaN,NaN,2.777777777777781,100,90.78174793521033,0,0,0,46.76577014786332
Aipe,Huila,41016,3.2544124081066665,-75.38393217305,NaN,NaN,97.10144927536231,92.07788693278232,13.367989918084437,24.632647976408375,0.2635046113306983,24.632646077680228,NaN,NaN,2.898550724637682,100,96.45134422048129,0,0.5175983436853002,0.25693727587303616,38.869809934422314
Albán,Cundinamarca,25019,4.9009268954575,-74.446230988,NaN,NaN,64.51612903225806,59.02295501768977,5.09885535900104,16.87115194243935,1.935483870967742,16.871151856120004,NaN,NaN,22.58064516129032,38.70967741935484,73.02179337146207,0,0,0,25.614244652223928
Albán,Nariño,52019,1.4833111205125,-77.07567641215,NaN,NaN,88.17204301075269,86.34098500589658,68.36628511966701,72.29038398081312,1.935483870967742,16.871151856120004,NaN,NaN,7.526881720430107,38.70967741935484,73.02179337146207,0,0,0,41.87141488407464
Albania,Caquetá,18029,1.2071806084975,-75.89646709515,NaN,NaN,78.94736842105263,73.25138565842516,7.4792243767313,38.68424736076034,2.3391812865497075,38.68424734904213,NaN,NaN,15.789473684210535,100,95.7632341354288,5.263157894736842,3.8476082377304626,1.9099635678706566,38.479531329408765
Albania,La Guajira,44035,11.1982974563,-72.51536387868333,NaN,NaN,81.87134502923976,82.18202962320774,69.15974145891043,79.56141578692011,51.16959064327485,69.34212367452106,NaN,NaN,27.485380116959067,100,97.8816170677144,1.7543859649122806,1.2825360792434874,0.6366545226235522,50.90614791418266
Albania,Santander,68020,5.79602448684,-73.82117910939999,NaN,NaN,89.47368421052632,86.62569282921258,53.73961218836565,69.34212368038017,2.3391812865497075,38.68424734904213,NaN,NaN,7.894736842105267,100,95.7632341354288,2.631578947368421,1.9238041188652313,0.9549817839353283,44.23976566470438
Alcalá,Valle del Cauca,76020,4.67421617044,-75.76285316513334,NaN,NaN,97.70114942528735,96.16576988559834,5.43004359889021,25.854930599186442,4.330392943063352,25.854930415024903,NaN,NaN,67.816091954023,45.97701149425287,67.16346299148472,14.942528735632186,11.623886289538984,5.7701298984603,40.2523088923107
Aldana,Nariño,52022,0.8715145951226666,-77.68937451833334,NaN,NaN,92.98245614035088,97.89528858436275,22.306863650353954,30.703871189466096,1.1695906432748537,30.703867142772136,NaN,NaN,8.771929824561406,82.45614035087719,94.02935084949544,5.263157894736842,1.8745952025477697,0.9305543392544773,39.85307260629833
Alejandría,Antioquia,5021,6.37606567589,-75.1413329006,NaN,NaN,90.9090909090909,85.90138011897207,55.37190082644628,57.658632752449314,1.8181818181818181,15.317265049433901,NaN,NaN,4.545454545454547,100,81.17530630465885,4.545454545454546,1.4887266176875609,0.7390080867431958,42.514217496701704
Algarrobo,Magdalena,47030,10.267873760083333,-74.05636350776666,NaN,NaN,90.9090909090909,93.51155463438656,59.50413223140496,63.97724085278468,10.909090909090908,27.954481483650405,NaN,NaN,22.72727272727273,81.81818181818181,93.87651959834943,0,0,0,45.3573806834319
Algeciras,Huila,41020,2.521127149558,-75.3081767049,NaN,NaN,100,100,50.774986828427814,65.66098688616093,2.2320261437908497,48.49147862034528,NaN,NaN,11.87363834422658,83.33333333333333,93.33508221309097,8.660130718954248,4.493270553862303,2.2304721604206628,46.63276787444206
Almaguer,Cauca,19022,1.90272669533,-76.85635682905,NaN,NaN,71.42857142857142,46.315985090720794,19.387755102040817,46.64363283550753,13.186813186813188,46.64363273833157,NaN,NaN,42.85714285714286,100,96.77090373690001,0,0,0,39.69007311251787
Almeida,Boyacá,15022,4.97085650862,-73.3789331048,NaN,NaN,50,50,100,100,NaN,NaN,NaN,NaN,0,NaN,NaN,50,12.06431032851043,5.988757632074388,46.0066334950731
Alpujarra,Tolima,73024,3.453680909345,-74.887006646275,NaN,NaN,83.33333333333333,90.32913011586517,16.666666666666664,44.512147512141745,0,44.51214722457399,NaN,NaN,0,100,95.36163096042407,16.666666666666664,8.333333333333332,4.136690141555881,41.758145339089715
Altamira,Huila,41026,2.0827961801,-75.75992428456667,NaN,NaN,66.66666666666666,93.92928745323228,18.055555555555554,24.229517854584522,10.606060606060606,24.229517411619753,NaN,NaN,33.33333333333334,100,86.62196451584232,0,0,0,39.40385327138866
Altos del Rosario,Bolívar,13030,8.765764253168333,-74.21750319038333,NaN,NaN,100,100,38.88888888888889,60.02724017137392,26.666666666666668,60.02724002954633,NaN,NaN,50,100,100,0,0,0,52.32570870244813
Alvarado,Tolima,73026,4.60600604814,-74.9734482337,NaN,NaN,100,100,4.164413196322337,17.84357606330004,1.8826135105204873,17.843575538452885,NaN,NaN,30.232558139534888,27.906976744186046,64.26718795916541,0,0,0,31.481575055729927
Amagá,Antioquia,5030,6.05166555862,-75.70087402622222,NaN,NaN,86.11111111111111,95.1348730813459,22.333333333333336,28.94703416177907,10.882352941176471,28.947033383248254,NaN,NaN,32.22222222222222,83.33333333333333,94.226032698381,8.333333333333332,10.347288407025575,5.13642311342138,43.36430343058752
Amalfi,Antioquia,5031,6.856991327685,-75.00448700435001,NaN,NaN,95.23809523809524,96.0726663053892,40.35968841163646,43.43463151306606,35.94516594516595,43.434630854040584,NaN,NaN,42.02741702741702,82.53968253968253,76.46388780419367,3.1746031746031744,1.32283017047847,0.656656623020517,47.021393159340754
Ambalema,Tolima,73030,4.813941233382,-74.80609955272,NaN,NaN,99.42028985507247,98.65410129957037,47.082545683679896,55.47341058319274,0.159846547314578,44.34176098785038,NaN,NaN,4.057971014492753,84.78260869565217,85.66466612960834,10,5,2.482014084933529,44.42327541990926
Anapoima,Cundinamarca,25035,4.551515659645,-74.50656378135,NaN,NaN,75,95.35508018889391,16.40625,68.8570925588407,10.833333333333334,68.8570925211211,NaN,NaN,43.75,68.75,91.6582279402274,6.25,0,0,43.350907638299574
Ancuyá,Nariño,52036,1.237758602625,-77.52823346935,NaN,NaN,99.35064935064935,99.25684659523415,72.72727272727273,75.64854600350532,40.95238095238095,65.90796205022929,NaN,NaN,19.48051948051948,92.72727272727272,92.21118196452291,0,0,0,51.87923399118377
Andalucía,Valle del Cauca,76036,4.17300466582,-76.20023531845,NaN,NaN,93.75,99.1720173056381,11.458333333333332,24.04750390621239,1.0869565217391304,24.04750310205502,NaN,NaN,10.416666666666671,68.75,83.4527104940556,0,0,0,35.648562566149565
Andes,Antioquia,5034,5.655447628955,-75.8931110707875,NaN,NaN,99.41520467836257,97.83367842097216,15.991815145400862,37.96718349558216,0.9880280839759181,37.96718284258632,NaN,NaN,6.3352826510721245,71.34502923976608,81.57654789518108,1.7543859649122806,0.23338047000230866,0.11585072273882742,37.59603516072422
Angelópolis,Antioquia,5036,6.103151270815,-75.7183347822,NaN,NaN,66.66666666666666,90.78731250543893,8.333333333333332,23.237208370048553,0,23.237208105300464,NaN,NaN,0,100,76.84288176926847,25,6.016307101641993,2.986511793112209,36.35183832177365
Angostura,Antioquia,5038,6.849074779175,-75.41128746955,NaN,NaN,93.33333333333333,90.79432267390996,46.77777777777778,48.55184911626755,1.0526315789473684,22.827768291337808,NaN,NaN,5,100,83.02511748508059,0,0.3819738971868789,0.18961291857895704,41.61339719027937
Anolaima,Cundinamarca,25040,4.790488861092,-74.47693011742,NaN,NaN,88.46153846153847,93.21633560384208,31.213017751479292,45.30715284494178,2.564102564102564,45.307150922892944,NaN,NaN,11.538461538461533,100,89.5806774294532,0,0,0,41.98920783580172
Anorí,Antioquia,5040,7.136182878840001,-75.09685102853334,NaN,NaN,40,75.10410655123135,36,36.648673333213964,20,36.64867228545305,NaN,NaN,40,100,100,0,0,0,40.70479817131321
Anserma,Caldas,17042,5.231950980753333,-75.7865359071,7,99.16167664670658,86,88.59776780755845,59.93333333333333,67.9116135726588,1.1111111111111112,46.51935202945771,1,98.73417721518987,2,100,96.15373334859639,17.77777777777778,2.75,1.3651077467134412,47.29985860073619
Ansermanuevo,Valle del Cauca,76041,4.805984971828333,-76.00601059416667,NaN,NaN,83.33333333333333,81.01023903369081,7.291666666666666,15.636524037620681,3.260869565217391,15.636523806521124,NaN,NaN,29.166666666666657,50,70.79559909346193,33.33333333333333,16.95154667414839,8.414795521328886,36.29041581140619
Anza,Antioquia,5044,6.32475385246,-75.89324350655001,NaN,NaN,100,100,14.277777777777779,15.392105983253648,0.11494252873563218,15.392105054665654,NaN,NaN,1.6666666666666643,100,63.0639780692189,3.3333333333333335,0.8333333333333334,0.41366901415558827,36.2814369733159
Anzoátegui,Tolima,73043,4.6232456878375,-75.1000237675,NaN,NaN,92.85714285714286,91.5303433970393,32.14285714285714,33.694026161580105,0,33.69402470127196,NaN,NaN,0,100,88.49726778935707,7.142857142857142,0,0,40.53313586280305
Apartadó,Antioquia,5045,7.8566349132575,-76.658426556475,14,98.32335329341318,73.33333333333333,74.10983057976762,51.111111111111114,63.544503795304166,0.38314176245210724,51.39267109786139,1,98.73417721518987,3.333333333333332,100,90.93989489097778,7.777777777777778,2.677644100638608,1.3291900744448395,44.553426497582905
Apía,Risaralda,66045,5.12363761109,-75.95100993273333,NaN,NaN,100,100,5.709342560553631,6.296581172370733,2.8520499108734403,6.296580485212799,NaN,NaN,32.35294117647058,52.94117647058824,35.22308288851381,0,0,0,30.488652198124583
Apulo,Cundinamarca,25599,4.52034721895,-74.5938045381,NaN,NaN,61.11111111111111,59.93154643721075,74.07407407407408,73.65671309224206,6.666666666666667,20.97013862496013,NaN,NaN,5.555555555555553,100,85.48987072280349,33.333333333333336,16.666666666666668,8.273380283111765,44.864279753572326
Aquitania,Boyacá,15047,5.440381887863333,-72.90189281111667,NaN,NaN,96.29629629629629,98.85874874453474,72.01646090534979,75.0812012694251,5.555555555555555,25.243603204226616,NaN,NaN,7.407407407407405,100,83.64788310174056,0,0.8230452674897119,0.40856198928946985,46.72359406959617
Aracataca,Magdalena,47053,10.586474132557143,-74.1560727931,NaN,NaN,100,100,31.25,61.766105515445446,0,61.76610514183554,NaN,NaN,0,100,96.5596587738296,0,0,0,44.50688766266137
Aranzazu,Caldas,17050,5.26231389527,-75.50927895016666,NaN,NaN,95.22727272727273,83.44403513492881,55.239669421487605,64.94293473427989,3.54978354978355,29.8858690013234,NaN,NaN,6.136363636363637,100,74.46305341182793,8.181818181818182,0.5333620939035884,0.2647624458876692,43.45242153243162
Aratoca,Santander,68051,6.693988,-73.018938,NaN,NaN,85.71428571428571,82.4061544056468,27.933673469387756,28.93539063461325,10.714285714285714,28.935388830376414,NaN,NaN,19.642857142857146,100,91.19925076117349,14.285714285714285,2.380952380952381,1.1819114690159662,42.217679634357495
Arauca,Arauca,81001,7.033128520063333,-70.68683860481667,95.40277777777777,88.57451763140386,53.851540616246496,53.45247898708482,56.56711050433245,64.45583812567845,13.674619272996553,50.23817291377949,6.263888888888889,92.07102672292545,9.81325863678805,94.70588235294117,92.01033068191151,0.05446623093681917,0.016271641939017655,0.008077288895527389,45.45881639667092
Arauquita,Arauca,81065,6.864342253325926,-71.38625023097038,NaN,NaN,96.80851063829788,95.60097082192527,45.59778180172024,47.43086324897728,4.10422448350293,29.90781668904173,NaN,NaN,14.042553191489361,76.59574468085107,87.0466648249813,0.5319148936170213,0,0,42.12023364436623
Arbeláez,Cundinamarca,25053,4.253411172285,-74.43057349845,NaN,NaN,93.33333333333333,90.91836498216394,12,35.266985779459134,5.714285714285714,35.266985446973706,NaN,NaN,33.33333333333334,60,92.77500030663457,0,0,0,38.485573040837274
Arboleda,Nariño,52051,1.47208192572,-77.10982813824,NaN,NaN,89.28571428571428,96.70873065059973,33.75850340136054,36.118896549914055,1.1904761904761905,36.1188948816839,NaN,NaN,3.571428571428573,100,96.70873065059973,0,0,0,41.576589118190284
Arboledas,Norte de Santander,54051,7.6487323756966665,-72.7969303921,NaN,NaN,50,31.613344807486506,15.625,18.710072991637865,3.571428571428571,18.71007189378819,NaN,NaN,12.5,100,100,0,0,0,30.183622397322996
Arboletes,Antioquia,5051,8.619195552232222,-76.40951294226667,NaN,NaN,79.41176470588235,90.53454958077964,25.28719723183391,35.05459909349948,15.367647058823529,35.054598446378,NaN,NaN,22.94117647058824,100,87.25987471614502,0,1.1786741965157366,0.5850971914599538,41.601870931411625
Arcabuco,Boyacá,15051,5.75518426904,-73.4381847561,NaN,NaN,86.11111111111111,74.4193652598849,27.546296296296294,36.85957107421675,13.49206349206349,36.85956946327403,NaN,NaN,19.444444444444446,100,92.0642313168608,0,1.3884221923536437,0.6892166874512067,41.09224744315297
Arenal,Bolívar,13042,8.437669701136,-73.9535816027,NaN,NaN,100,100,16.198347107438018,24.694142514408618,1.8181818181818181,24.69414071039465,NaN,NaN,9.090909090909086,100,83.86793674371489,0,0,0,39.606319752241134
Argelia,Antioquia,5055,5.7306718788,-75.1417414563,NaN,NaN,92.85714285714286,97.21799653985217,52.97959183673469,56.63893132434251,3.1932773109243695,13.27786256946076,NaN,NaN,17.142857142857146,57.14285714285714,69.35417845496737,2.857142857142857,0,0,41.77625627385879
Argelia,Cauca,19050,2.35091429435125,-77.2445591179375,NaN,NaN,85.71428571428571,94.43599307970433,5.959183673469388,13.277862648685023,3.1932773109243695,13.27786256946076,NaN,NaN,34.28571428571429,57.14285714285714,69.35417845496737,5.714285714285714,0,0,33.552512547717576
Argelia,Valle del Cauca,76054,4.7286632609,-76.14059369216668,NaN,NaN,85.71428571428571,94.43599307970433,5.959183673469388,13.277862648685023,3.1932773109243695,13.27786256946076,NaN,NaN,34.28571428571429,57.14285714285714,69.35417845496737,5.714285714285714,0,0,33.552512547717576
Ariguaní,Magdalena,47058,9.88216622689,-74.08564889971667,NaN,NaN,57.89473684210527,90.78366344761449,7.4792243767313,18.659065434767207,2.3391812865497075,18.659065379757937,NaN,NaN,21.05263157894737,42.10526315789473,79.59190050516808,15.789473684210526,6.015703537778686,2.986212182310232,31.336096003097964
Arjona,Bolívar,13052,10.1954857905375,-75.3542535361375,NaN,NaN,100,100,68,99.91140485500338,20,99.8228097100037,NaN,NaN,20,100,100,0,0,0,52.08285498681849
Armenia,Antioquia,5059,6.150145845976001,-75.79945317768,NaN,NaN,50,50,54.86111111111111,60.879348434839784,1.5151515151515151,21.758696816246164,NaN,NaN,4.166666666666671,100,87.96265834735624,4.166666666666666,0,0,32.392063437321646
Armenia,Quindío,63001,4.484716031329091,-75.73460831568181,85.5925925925926,89.74939010867155,76.23307734937852,76.36507818264589,57.92237752075886,64.8779865643018,12.67584940370148,48.08050035927218,7.611111111111111,90.36568213783404,8.517768704610603,92.57270758967758,92.43091589815775,9.598637098637099,2.806195928453593,1.393003563900988,46.1764741827989
Armero,Tolima,73055,5.06027209648,-74.88057085911666,14,98.32335329341318,63.768115942028984,63.8291288486702,52.709514807813484,57.231669379864584,1.9762845849802373,35.84749908294999,5,93.67088607594937,8.695652173913047,100,88.8898365784496,0,0,0,42.41025927648675
Arroyohondo,Bolívar,13062,10.234914694533334,-75.02648653483334,NaN,NaN,100,100,60,67.64767076795431,0,35.29534136149676,NaN,NaN,0,100,96.22629020590607,0,0,0,45.52371053371885
Astrea,Cesar,20032,9.522293876362221,-73.92441464241111,NaN,NaN,97.70114942528735,99.10947507890026,37.62041991456379,43.38841555011271,2.731669879346041,15.082623014600992,NaN,NaN,19.636015325670495,55.10057471264368,71.45501960559535,1.1494252873563218,0.5747126436781609,0.28528897527971603,39.60512833326414
Ataco,Tolima,73067,3.382134117131818,-75.58172166055455,NaN,NaN,62.5,80.97958117217193,62.5,71.66553243144826,0,43.33106451178053,NaN,NaN,0,100,100,0,0,0,41.14955578214729
Ayapel,Córdoba,23068,8.317555279143637,-75.07920149644545,NaN,NaN,80,97.51634252061969,28.000000000000004,43.25102839823836,10,43.25102837809371,NaN,NaN,20,100,100,0,0,0,43.52430644716891
Bahía Solano,Chocó,27075,6.32780601995375,-77.4066473555125,NaN,NaN,100,100,20,32.61699048287356,0,32.61699030437552,NaN,NaN,0,100,94.70198675496688,0,0,0,40.6653615670764
Bajo Baudó,Chocó,27077,4.929590105455882,-77.29634586820589,NaN,NaN,100,100,14.285714285714285,28.10606109524479,0,28.106061052887288,NaN,NaN,0,100,91.28922671916719,0,0,0,39.42554564546602
Balboa,Cauca,19075,2.0740727120877778,-77.19246258117778,NaN,NaN,100,100,5.92,13.53409557820632,2,13.534095424051932,NaN,NaN,20,36,57.43304482401251,0,0,0,30.444285491110804
Balboa,Risaralda,66075,4.927390624552499,-75.96665347555,NaN,NaN,100,100,16.96,21.197297338091758,6,21.197293107669413,NaN,NaN,20,68,78.71652241200626,0,0,0,37.35216543182709
Baranoa,Atlántico,8078,10.794258585849999,-74.9310085652,167.22222222222223,79.9733865602129,51.111111111111114,57.59854911883224,47.22222222222222,62.97078287654625,20,62.970782641793164,3.611111111111111,95.42897327707455,13.333333333333334,100,98.2600450919755,0,0,0,47.648860652204746
Baraya,Huila,41078,3.1413486029533333,-74.99007539446667,NaN,NaN,100,100,20.135802469135804,31.067181369166637,8.131313131313131,31.06717941367305,NaN,NaN,25.185185185185187,88.88888888888889,94.38293198179241,14.074074074074074,4.678334180354696,2.3223382659332628,44.44236814053128
Barbacoas,Nariño,52079,1.605859073995238,-78.08697723837619,NaN,NaN,97.86535303776682,98.5811364519169,45.72393031727158,51.86905073344856,0.8139916752587162,32.61667004464459,NaN,NaN,8.308702791461412,87.58620689655173,84.56347786860508,1.477832512315271,0.8900330049553924,0.44181489087099957,42.8691345244432
Barbosa,Antioquia,5079,6.4264430937892305,-75.3725909376077,NaN,NaN,95.16129032258064,97.70911120233939,51.61290322580645,55.1967642838628,0,10.393528488247643,NaN,NaN,0,100,53.89138591088754,4.838709677419355,5.995086130749268,2.975977643381867,42.31232140378032
Barbosa,Santander,68077,5.935574048164,-73.62748389932,NaN,NaN,96.77419354838709,98.47274080155958,21.519713261648747,28.519755924305755,3.3333333333333335,28.51975480388901,NaN,NaN,6.666666666666667,100,84.63046197029584,3.2258064516129035,3.9967240871661787,1.9839850955879115,40.82939828550582
Barichara,Santander,68079,6.65630325679,-73.23154925765,NaN,NaN,100,100,19.081632653061224,31.03575837213502,13.678804855275445,31.035757799030268,NaN,NaN,57.85714285714286,80,85.18146186152637,0,0,0,44.25770914537645
Barranca de Upía,Meta,50110,4.601252643095,-72.9964377617,NaN,NaN,46.666666666666664,55.34921430043767,59.333333333333336,76.38321831438455,5,64.57482690157308,NaN,NaN,6.666666666666667,100,100,13.333333333333334,14.841172365749605,7.367199769743357,40.14613376518017
Barrancabermeja,Santander,68081,6.993511421330527,-73.79328272880527,18,97.8443113772455,91.07638888888889,93.31131100645781,68.48818824404762,75.69940286230504,35.00163612565445,63.54910375838602,5,93.67088607594937,15.659722222222223,100,94.59447197572784,0.78125,0.15244120258336416,0.07567224238722307,50.62038821643771
Barrancas,La Guajira,44078,10.948224277872727,-72.79517756263637,NaN,NaN,100,100,54.08163265306123,58.381969810017885,1.098901098901099,16.763939596427115,NaN,NaN,3.5714285714285694,100,70.86094399158912,0,0,0,43.36499577997753
Barranco de Loba,Bolívar,13074,8.8768668258240009,-74.1754436973,NaN,NaN,75,83.24825468197321,14.602623456790123,22.882831932084322,3.1746031746031744,22.882831292369964,NaN,NaN,11.805555555555557,100,86.34635385394554,0,0,0,36.0963838777229
Barranquilla,Atlántico,8001,10.9759268186,-74.7952590482,132.1,84.17964071856287,93.00449385676208,93.20681815879249,69.14071612688159,74.15303830691882,13.371239493915791,49.78304440320774,2.9,96.32911392405063,7.432320393388401,95.865239590677,93.36777831476945,5.4805475117975115,3.16306488914082,1.5701543212812457,48.38218053309622
Becerril,Cesar,20045,9.69441327915,-73.2704376299,NaN,NaN,86.66666666666666,94.82773944585895,31.444444444444446,37.326499818174014,3.3333333333333335,37.32649700219353,NaN,NaN,13.333333333333336,100,91.37378412223045,3.3333333333333335,1.6666666666666667,0.8273380283111765,42.19392174475931
Belalcázar,Caldas,17088,5.000550064754,-75.81458799862,NaN,NaN,100,100,7.9584775086505175,12.309892298051556,2.2058823529411766,12.309891763673468,NaN,NaN,17.64705882352942,100,61.242553969438895,0,0,0,36.48762408660105
Belén,Boyacá,15087,5.98927786058,-72.9116195663,NaN,NaN,62.5,61.1679014348724,12.5,29.10093610336095,0,29.10093586264916,NaN,NaN,0,100,94.88217565808604,0,0,0,32.7410011996654
Belén,Nariño,52083,1.6100769858650001,-77.0412117545,NaN,NaN,87.5,87.05596714495746,54.166666666666664,59.79519381506282,0,39.69278922010379,NaN,NaN,0,100,97.44108782904303,0,0,0,42.740474501155965
Belén de Los Andaquies,Caquetá,18094,1.4206634179333333,-75.86138187691667,NaN,NaN,66.66666666666667,66.66666666666667,47.694633408919124,48.84786366032976,11.062271062271062,23.27179495506504,NaN,NaN,25.396825396825403,85.71428571428571,85.58828707155409,0,0,0,36.53174712407408
Belén de Umbría,Risaralda,66088,5.205073983576667,-75.84989248035001,NaN,NaN,99.28571428571429,98.59630905482996,37.77295918367347,47.65662749385616,11.944444444444445,38.93273022806115,NaN,NaN,13.928571428571429,87.91666666666667,91.81526010972759,2.857142857142857,1.946071084623018,0.9660351684632402,44.43018495095004
Bello,Antioquia,5088,6.342081572294286,-75.57809790422857,NaN,NaN,100,100,61.97992278663571,67.15192062511771,17.165171626182673,53.62623752260979,NaN,NaN,14.499681760320058,97.62202753441802,98.5142705860347,2.1259547190398256,2.7307722327327664,1.3555630288776217,49.51657783847792
Belmira,Antioquia,5086,6.6430985540566665,-75.65056502103333,NaN,NaN,96.55172413793103,97.14910731202588,53.983353151010704,58.15239664445144,4.679802955665025,16.304793156235107,NaN,NaN,15.517241379310342,48.275862068965516,63.38862114522641,13.793103448275861,13.557974734564132,6.730216850872221,44.41884188576091
Beltrán,Cundinamarca,25086,4.7253585539525,-74.769510877,NaN,NaN,0,0,100,100,NaN,NaN,NaN,NaN,0,NaN,NaN,0,0,0,25
Berbeo,Boyacá,15090,5.22728723002,-73.1270321462,NaN,NaN,83.33333333333333,85.56943910100578,88.88888888888889,87.79816523077803,33.33333333333333,51.19265885964723,NaN,NaN,8.333333333333336,100,100,0,0,0,47.705135747333884
Betania,Antioquia,5091,5.7491237741950005,-75.9809836973,NaN,NaN,93.47826086956522,92.69815521617932,52.74102079395085,54.79279312522581,1.185770750988142,9.585585920347361,NaN,NaN,6.521739130434781,100,49.33498301221676,0,0.14098429726620104,0.06998500231383332,40.97302866513986
Betéitiva,Boyacá,15092,5.90926519523,-72.83766116749999,NaN,NaN,100,100,33.33333333333333,37.35713043900199,0,37.35712975036811,NaN,NaN,0,100,100,0,0,0,42.79004216112139
Betulia,Antioquia,5093,6.167456286929999,-75.9668815016,NaN,NaN,93.75,96.7754244578975,9.852430555555555,25.78305047498826,1.25,25.783049790291997,NaN,NaN,9.375,100,83.47238781423428,6.25,0.8953199121297226,0.44443932648548423,38.895277503753704
Betulia,Santander,68092,7.0606166927575,-73.396696058775,NaN,NaN,87.5,93.550848915795,8.59375,21.6525835330946,2.5,21.65258336309983,NaN,NaN,18.75,100,82.52004738894388,12.5,1.7906398242594452,0.8888786529709685,39.1133407559149
Bituima,Cundinamarca,25095,4.819063717913334,-74.53547799633333,NaN,NaN,77.77777777777777,83.69273789646635,13.580246913580247,19.965351218351934,2.7777777777777777,19.96535061237496,NaN,NaN,11.111111111111114,100,84.17570521613276,0,0,0,35.73460981010891
Boavita,Boyacá,15097,6.33065256287,-72.5849593987,NaN,NaN,60.00000000000001,87.29201634237018,20,48.357179234959055,0,48.35717854063391,NaN,NaN,0,100,96.36991579818023,0,0,0,37.45628285231904
Bochalema,Norte de Santander,54099,7.63554687169,-72.6343821504,NaN,NaN,100,100,19.387755102040817,21.902079353145012,13.186813186813188,21.902078897417287,NaN,NaN,42.85714285714286,100,90.13827958482717,0,4.606440316298192,2.286649949291555,44.94228730450534
Bogotá D.C.,Bogotá D.C.,11001,4.316839851429231,-74.20605366574615,44.58407879433999,94.6605893659473,49.676521761504794,48.99973947606691,71.07404022896016,76.80845416405701,12.326127579205481,54.20403490631411,11.40928662962245,85.55786502579437,5.600597602617642,99.17370619133729,96.59810338665505,5.4534875748052025,0.7399364829869618,0.36730655454596356,44.307622190037286
Bojacá,Cundinamarca,25099,4.72366718459,-74.34194966805,NaN,NaN,83.33333333333333,83.72000785054266,8.333333333333332,37.40935538334639,0,37.40935521351709,NaN,NaN,0,100,87.02767206124709,8.333333333333332,2.831044136694241,1.4053382844687181,37.49031070148173
Bojaya,Chocó,27099,6.55673354492875,-76.90271583284999,NaN,NaN,100,100,33.33333333333333,36.87432089441897,25,36.874320789397125,NaN,NaN,55.55555555555556,100,100,0,0,0,50.06938270757344
Bolívar,Cauca,19100,1.8721178715425,-76.96098405795833,40,95.20958083832335,45.890410958904106,48.086731146670594,17.914555576405828,38.93179695477369,0.5707762557077625,38.931795917627454,3.6666666666666665,95.35864978902954,16.438356164383563,62.32876712328767,76.41605864074918,16.43835616438356,3.7577625570776254,1.8653639189005002,35.92603825255998
Bolívar,Santander,68101,6.112554097193333,-73.80762070073334,NaN,NaN,91.78082191780821,96.17346229334119,2.495777819478326,9.346311920577797,1.141552511415525,9.34631186208251,NaN,NaN,32.87671232876713,24.65753424657534,52.83211728149837,16.43835616438356,7.515525114155251,3.7307278378010005,30.817172675981972
Bolívar,Valle del Cauca,76100,4.348410290582001,-76.25530965657,NaN,NaN,97.26027397260273,98.72448743111373,24.165259273159442,36.667548981274116,0.38051750380517496,36.66754454205067,NaN,NaN,10.958904109589042,74.88584474885845,84.27737242716613,5.47945205479452,2.50517503805175,1.2435759459336668,39.6862192260317
Bosconia,Cesar,20060,9.886818755583333,-73.85513575973333,NaN,NaN,92.5,96.5312034449008,58.7625,71.56889417064744,7.222222222222222,52.61482339241197,NaN,NaN,10.5,100,91.58874077463658,0,0,0,46.28628867396941
Boyacá,Boyacá,15104,5.45423716391,-73.3623027174,NaN,NaN,79.16666666666667,90.67846983834545,51.388888888888886,62.948863171487524,2.2222222222222223,50.59848226127506,NaN,NaN,4.166666666666664,100,97.36266504114897,0,0,0,43.2307473345076
Briceño,Antioquia,5107,7.137577242996,-75.5695647369,NaN,NaN,92,99.11316625611735,10.390123456790123,19.984326975152605,3.0555555555555554,19.98432648683525,NaN,NaN,21.555555555555557,78,76.32857494127057,0,0.9984,0.49560857247952717,36.53830102844739
Briceño,Boyacá,15106,5.69087889724,-73.9232596955,NaN,NaN,92,99.11316625611735,53.6,62.309408236104744,3.3333333333333335,24.618816367238423,NaN,NaN,16,56.00000000000001,81.33154871767539,0,0.9984,0.49560857247952717,42.71354764456418
Bucaramanga,Santander,68001,7.172108315246667,-73.12675052726667,31.403125,96.23914670658682,58.7037037037037,59.64447329395347,65.03711880017796,74.07042079693197,14.724624968527408,55.121880607334475,7.353125,90.69224683544304,9.762225428892096,95.87912087912088,97.73644667262143,5.2570035328656015,1.2059755599057491,0.5986496651543337,45.028230856753595
Bucarasica,Norte de Santander,54109,8.084113688696666,-72.88900189443333,NaN,NaN,97.01492537313433,87.93075212727538,1.7598574292715523,9.663033347047849,0.27137042062415195,9.66303317640399,NaN,NaN,8.955223880597018,17.91044776119403,50.037005686284566,8.955223880597014,7.81187987810297,3.877839177452079,26.744323541961904
Buena Vista,Boyacá,15109,5.51243115138,-73.9423052248,NaN,NaN,95.83333333333333,97.74601297671137,40.476190476190474,42.48906663782364,4.025974025974025,13.733598787103,NaN,NaN,14.88095238095238,67.85714285714286,63.957085453902835,1.1904761904761905,0.8427599984278021,0.4183484372632727,39.49429775659318
Buenaventura,Valle del Cauca,76109,3.883085,-77.019447,13,98.44311377245509,88.88888888888889,88.88888888888889,59.77426155242783,65.1704142880558,21.813202141165316,43.00613076163073,4,94.9367088607595,18.691401191401194,94.54545454545455,91.71566590452174,0.8088235294117648,0.28801502795363787,0.14297147121069065,46.47258713665451
Buenavista,Córdoba,23079,8.211365650612143,-75.40459815049286,NaN,NaN,95.83333333333333,97.74601297671137,45.33730158730159,49.7431706244785,0.45454545454545453,24.614754962507824,NaN,NaN,6.547619047619047,67.85714285714286,77.50591626545717,1.1904761904761905,0.8427599984278021,0.4183484372632727,40.442796234579525
Buenavista,Quindío,63111,4.382199739725,-75.73608289515,NaN,NaN,93.75,96.61901946506705,18.00595238095238,22.96424648950971,0.45454545454545453,22.96424334019492,NaN,NaN,9.82142857142857,67.85714285714286,77.50591626545717,1.7857142857142856,1.2641399976417032,0.6275226558949091,35.51414803848674
Buenavista,Sucre,70110,9.375311107373333,-74.95526084105,NaN,NaN,95.83333333333333,97.74601297671137,40.244708994708994,50.105891882448034,28.08080808080808,50.10589052781969,NaN,NaN,34.32539682539683,78.57142857142857,85.00394417697144,1.1904761904761905,0.8427599984278021,0.4183484372632727,46.57846449708854
Buenos Aires,Cauca,19110,3.049100523212,-76.67241587301,NaN,NaN,100,100,24.371301775147927,42.69279406854597,10.256410256410255,42.69279379907546,NaN,NaN,20.192307692307693,100,91.89722339498377,0,0,0,44.491821562490514
Buesaco,Nariño,52110,1.3627983999283333,-77.12960183936667,65.5,92.1556886227545,74.07407407407408,76.05197621195143,65.52160493827161,67.64557584754293,3.398268398268398,27.20254506118973,28,64.55696202531647,7.037037037037036,100,84.43328188231436,0,0,0,43.76440157810383
Bugalagrande,Valle del Cauca,76113,4.21295059103375,-76.103968757,NaN,NaN,66.66666666666667,66.66666666666667,41.89623507805326,55.69634160792302,4.545454545454546,33.54451224929353,NaN,NaN,12.121212121212123,100,87.95398465316228,14.646464646464645,7.6767676767676765,3.8107691000999644,38.41037118450896
Buriticá,Antioquia,5113,6.753446216578571,-75.90530156405714,NaN,NaN,60,51.71255021213689,17.462603878116344,25.76422080025841,5.87719298245614,25.76422014718591,NaN,NaN,17.894736842105267,100,73.8008953241435,0,0,0,32.04656363992878
Busbanzá,Boyacá,15114,5.8313895322,-72.8841617543,NaN,NaN,100,100,33.33333333333333,41.04105365994505,0,41.04105300492403,NaN,NaN,0,100,100,0,0,0,43.12494427211622
Cabrera,Cundinamarca,25120,3.98461913986,-74.4841872343,NaN,NaN,92.59259259259258,96.09003602319177,9.190672153635116,13.201077611226056,5.698005698005698,13.201077391413039,NaN,NaN,44.44444444444444,70.37037037037037,64.37283591967578,11.11111111111111,6.36251718827861,3.1583714553878375,37.87200314253813
Cabrera,Santander,68121,6.59226080179,-73.2465028955,NaN,NaN,96.29629629629629,98.04501801159589,22.59533607681756,28.423685300374192,12.849002849002849,28.42368468832533,NaN,NaN,42.22222222222222,85.18518518518519,82.18641795983788,5.555555555555555,3.181258594139305,1.5791857276939187,43.46537852533826
Cabuyaro,Meta,50124,4.34334830428,-72.877696750675,NaN,NaN,100,100,21.875,33.03029889847927,10.714285714285714,33.03029875458229,NaN,NaN,25,100,94.09540575059907,0,0,0,44.06499912394219
Cáceres,Antioquia,5120,7.766653119626,-75.27895862788,NaN,NaN,86.11111111111111,74.76571521532371,53.08641975308642,67.61328437953695,0.6535947712418301,35.2265687261452,NaN,NaN,2.7777777777777786,100,88.4101159584465,0,0,0,41.262378509243646
Cachipay,Cundinamarca,25123,4.723042986143334,-74.4532273219,NaN,NaN,90,89.06398996814522,8.5,13.086300791510025,3.684210526315789,13.086300510821665,NaN,NaN,30,55.00000000000001,63.24425507206832,25,44.32097457627119,22.00105663125719,40.35461705141525
Cachirá,Norte de Santander,54128,7.697830056412,-73.083064979,NaN,NaN,100,100,22.222222222222218,35.09844693596922,6.666666666666667,35.09844661554836,NaN,NaN,16.666666666666657,100,97.03778257961999,0,0,0,43.426525915558614
Cácota,Norte de Santander,54125,7.26870546239,-72.6420588392,NaN,NaN,80,67.49785695573614,10,15.046195487997032,0,15.046194326568271,NaN,NaN,0,100,68.57550246188626,0,0,0,31.010868627783584
Caicedo,Antioquia,5125,6.40556700301,-75.9828188939,NaN,NaN,99.10714285714286,99.5366212016055,13.64795918367347,32.98990195613556,0.2597402597402597,32.98990130471042,NaN,NaN,4.464285714285715,100,81.37604720990984,0.8928571428571428,0.9877366218483783,0.49031524152646766,39.43205521715683
Caicedonia,Valle del Cauca,76122,4.299344256592001,-75.83130262876,36,95.68862275449102,74.35897435897436,79.87558367443432,45.32967032967033,55.3752602950786,0,33.06288941252342,5,93.67088607594937,0,100,87.69300936969618,0,0,0,41.004436568997335
Caimito,Sucre,70124,8.791786962823,-75.125261715135,NaN,NaN,93.33333333333333,97.14261603670512,71.33333333333333,79.39306328038151,4.444444444444445,38.17918966687084,NaN,NaN,6.666666666666667,100,83.51333247954827,16.666666666666668,6.998408327088376,3.4740296079898894,48.87824632365113
Cajamarca,Tolima,73124,4.412845227823333,-75.43816919056667,NaN,NaN,88.18181818181819,83.70613487879957,72.14876033057851,77.89121321314006,0.9090909090909091,44.72803248522322,NaN,NaN,1.8181818181818188,100,88.12626262626263,3.6363636363636367,1.8181818181818183,0.9025505763394651,45.06521326068586
Cajibío,Cauca,19130,2.621383438887143,-76.64899101146429,NaN,NaN,57.14285714285714,69.77286176895024,14.285714285714285,20.83288397205061,0,20.83288337469779,NaN,NaN,0,100,91.16803162769752,0,0,0,32.10930443611544
Cajicá,Cundinamarca,25126,4.9187646804225,-74.03357835293,11,98.68263473053892,50,50,70.64120282763841,73.20697278662739,2.1623972169512964,28.551926414576858,1,98.73417721518987,4.8483455882352935,100,80.66059650529958,0,0,0,36.34969102081297
Calamar,Bolívar,13140,10.199809872316667,-74.97012373853333,NaN,NaN,66.66666666666666,93.5079922105073,6.790123456790123,13.739533014936276,1.3071895424836601,13.739532955377854,NaN,NaN,11.111111111111114,100,65.118811115227615,0,11.110550359805679,5.5153084968801975,34.07884417949169
Calamar,Guaviare,95015,1.9481849191666667,-72.56519350666667,NaN,NaN,66.66666666666666,93.5079922105073,6.790123456790123,13.739533014936276,1.3071895424836601,13.739532955377854,NaN,NaN,11.111111111111114,100,65.118811115227615,0,11.110550359805679,5.5153084968801975,34.07884417949169
Calarcá,Quindío,63130,4.451251391238333,-75.70156327689166,NaN,NaN,91.66666666666667,91.66666666666667,54.36651691138871,62.325949049442535,3.8493589743589745,43.488921137758624,NaN,NaN,7.428774928774929,93.75,94.43396967548185,5.833333333333333,0,0,44.09637515056061
Caldas,Antioquia,5129,6.080578740182666,-75.63733153309333,NaN,NaN,94.11764705882352,98.88549346716239,24.87504805843906,35.51174622120594,0.7352941176470589,35.511742887788714,NaN,NaN,3.9215686274509807,100,96.77852063894098,13.72549019607843,18.00743368557896,8.938940808222695,45.04519844359545
Caldas,Boyacá,15131,5.575708183485,-73.86395272235,NaN,NaN,94.11764705882352,98.88549346716239,69.3194925028835,74.91321556230429,2.2058823529411766,24.739646638707004,NaN,NaN,3.9215686274509807,100,90.33556191682293,13.72549019607843,18.00743368557896,8.938940808222695,49.63725121197813
Caldono,Cauca,19137,2.80410615225,-76.51236874564286,NaN,NaN,88.88888888888889,94.63334784917453,11.11111111111111,18.86097145930048,0,18.860971415195234,NaN,NaN,0,100,76.5495865224793,0,0,0,35.45853689372312
Cali,Valle del Cauca,76001,3.406996143003396,-76.56139954027547,44.86842105263158,94.62653640088244,80.25313621855707,80.44564314864083,53.533129642426566,61.338368268086164,11.311899873454312,47.40219695569924,10.824561403508772,86.29802353986231,12.029844413200179,94.54645585913387,95.03990426690314,3.083840583840584,1.1235949561437255,0.5577557013817995,45.29248007832254
California,Santander,68132,7.3582172334900005,-72.93133846525,NaN,NaN,100,100,25,56.34244050476903,0,56.3424396758878,NaN,NaN,0,100,100,0,0,0,43.75840368225173
Calima,Valle del Cauca,76126,3.932988747366,-76.46007863352,NaN,NaN,97.43589743589743,99.81705374068908,45.747534516765285,66.12041254967481,10.811965811965813,49.180618537894844,NaN,NaN,24.358974358974354,100,92.01539180170536,12.820512820512823,3.4884146540050858,1.7316588610658297,48.794427031518076
Caloto,Cauca,19142,3.0723791454209914,-76.38356605306357,NaN,NaN,85,84.10133858083987,16.333333333333332,19.719155374335358,3.3333333333333335,19.71915417884014,NaN,NaN,15,100,78.6301132918818,0,0,0,36.55611581033852
Campamento,Antioquia,5134,7.0122298621175005,-75.277866910625,NaN,NaN,92,88.68007186957895,7.5200000000000005,8.969934814654938,3.6666666666666665,8.969934411506523,NaN,NaN,36,64,45.91835442225105,0,0,0,31.52318434301378
Campo de La Cruz,Atlántico,8137,10.42033911955,-74.85854933044999,NaN,NaN,98.57142857142857,95.78863409501966,7.551020408163265,42.85192123333801,6.211180124223603,42.85192112394188,NaN,NaN,70,50,79.0800398670102,2.857142857142857,1.310001912411551,0.6502886395790658,41.351968882574255
Campoalegre,Huila,41132,2.6504612600357143,-75.34381264492858,NaN,NaN,97.72727272727273,99.2932174815199,41.16161616161616,48.33371014385994,0.9523809523809524,31.11161306255768,NaN,NaN,9.027777777777779,87.03703703703704,81.25023650206525,10.29040404040404,14.494942270697255,7.195330175233797,45.335514076889694
Campohermoso,Boyacá,15135,5.01599537399,-73.11951176556667,NaN,NaN,100,100,33.33333333333333,45.35064235485374,0,45.350641511150336,NaN,NaN,0,100,100,0,0,0,43.51672506256246
Canalete,Córdoba,23090,8.729832732895556,-76.21265344948888,NaN,NaN,100,100,28.000000000000004,29.29134737689955,10,29.291347195433005,NaN,NaN,20,100,100,0,0,0,44.29921339789996
Cañasgordas,Antioquia,5138,6.838775567138333,-76.03705874291667,NaN,NaN,92.5925925925926,92.01073966192854,9.970637916765863,19.39140603054491,3.812483812483812,19.39140573644203,NaN,NaN,25.757575757575758,75.92592592592592,68.20849774736078,0,0,0,35.2427144950162
Candelaria,Atlántico,8141,10.4725647215,-74.8902619593,NaN,NaN,100,100,4.86111111111111,16.184763578821993,0.7246376811594203,16.184763554881055,NaN,NaN,8.333333333333343,100,75.8943934468175,12.5,7.986111111111111,3.9643280523243867,39.13169802860717
Candelaria,Valle del Cauca,76130,3.399602345184,-76.391730188104,NaN,NaN,75,75,45.204897154940404,65.04061765611878,20.976840011366864,53.387490064340554,NaN,NaN,21.49509803921569,100,86.46466543348171,11.948529411764707,6.314393684141942,3.134482812371124,43.406286167471734
Cantagallo,Bolívar,13160,7.306284001933571,-73.98364204350715,NaN,NaN,96.7741935483871,99.27436147796742,51.8210197710718,65.96527005526096,0.43010752688172044,31.93054008114162,NaN,NaN,3.225806451612904,100,80.8415202473284,4.838709677419355,3.416543282860398,1.6959817099689092,44.78615453287763
Caparrapí,Cundinamarca,25148,5.39557756919,-74.52817911871,NaN,NaN,91.42857142857143,79.10406725920635,4.489795918367347,11.736478828956738,1.680672268907563,11.736478447456498,NaN,NaN,25.714285714285708,48.57142857142857,57.315258152957504,0,0,0,29.0945961947892
Capitanejo,Santander,68147,6.53317998207,-72.6991995911,NaN,NaN,100,100,75,75,0,49.999996047430514,NaN,NaN,0,100,100,0,0,0,47.72727272727273
Caqueza,Cundinamarca,25151,4.40410105992,-73.946474203,NaN,NaN,96.7741935483871,97.21825111687939,4.023180437426961,16.472412652762912,1.7061433190465447,16.472412526654704,NaN,NaN,20.772238514174,25.41544477028348,59.330962976805104,4.545454545454546,0.33670028634559884,0.16713897062218575,29.705647376198893
Caracolí,Antioquia,5142,6.40985472681,-74.7574494413,NaN,NaN,95,93.72393502409543,7.000000000000001,8.646853815798766,2.1052631578947367,8.646853367878231,NaN,NaN,20,40,62.896144118064555,0,0.3334409871377521,0.1655210453140081,29.988287104391386
Caramanta,Antioquia,5145,5.558226526033334,-75.6192571283,NaN,NaN,100,100,45.167824074074076,51.8170695999577,7.083333333333334,27.725603983133198,NaN,NaN,20.138888888888886,87.5,82.87108367990456,5.5555555555555545,1.9432362777777776,0.9646279623596498,44.89910427582778
Carcasí,Santander,68152,6.64078147853,-72.6086080818,NaN,NaN,100,100,12.499999999999996,20.023969515042072,4.545454545454546,20.023968920232303,NaN,NaN,25,100,80.2560658918306,0,0,0,40.211408177484294
Carepa,Antioquia,5147,7.802136556887692,-76.6755318567923,60,92.81437125748504,81.57894736842105,74.05170406304426,17.445752539242843,31.50661366473727,3.5505430242272347,31.506613362661316,1,98.73417721518987,13.596491228070178,100,90.45459475513846,0,0,0,41.94043796788062
Carmen de Apicala,Tolima,73148,4.1479120574,-74.7161694209,NaN,NaN,100,100,39.77777777777778,57.039364921445376,6.666666666666667,57.03936410151894,NaN,NaN,13.333333333333334,100,100,11.111111111111109,5.5555555555555545,2.757793427703921,48.74923661759943
Carmen de Carupa,Cundinamarca,25154,5.34911575799,-73.9015737647,NaN,NaN,81.25,88.70489367477883,31.25,58.32797434253985,15.476190476190474,58.32797264534587,NaN,NaN,31.25,100,100,31.25,8.066062000155291,4.004015898866509,49.96173967204827
Carmen del Darien,Chocó,27150,7.057373894920834,-76.926757233525,NaN,NaN,100,100,7.03125,18.654950581604428,0.8333333333333334,18.65495051542946,NaN,NaN,6.25,100,72.95813112999127,0,0,0,36.88433318590264
Carolina,Antioquia,5150,6.72597714593,-75.2831701138,NaN,NaN,82.14285714285714,92.55184922474672,10.344671201814059,22.938014086824964,3.6996336996337,22.938013616730252,NaN,NaN,20.95238095238095,100,72.24729403517735,7.142857142857142,3.166575828360221,1.5718971614000252,37.88709367964111
Cartagena,Bolívar,13001,10.351321809922903,-75.54423180374839,26.7,96.80239520958084,64.79811574697173,67.11805601159077,72.14433756561051,79.10442618792378,14.736177261224203,56.00931747649946,5.088888888888889,93.55836849507736,7.259944668760282,92.50029515241671,92.56776936853257,5.688380688380688,1.0997127532114672,0.5459005085703784,47.17300254813098
Cartagena del Chairá,Caquetá,18150,0.7659345413486,-74.54132381019333,NaN,NaN,95.45454545454547,81.82267146226201,24.121900826446282,40.778265818348586,9.24242424242424,40.77826551177874,NaN,NaN,17.045454545454547,100,95.6976897466534,0,0,0,42.1966320087395
Cartago,Valle del Cauca,76147,4.7259854048016665,-75.94079136578333,26,96.88622754491017,86.16071428571429,86.31214493625097,52.52285289115646,58.46055443650019,14.536019536019536,44.61407070768368,2,97.46835443037975,8.779761904761905,100,93.75483287505153,0.4166666666666667,1.395164695945946,0.6925636852279686,45.15289358992688
Caruru,Vaupés,97161,1.01459770902,-71.2977932628,NaN,NaN,81.25,56.26201166545559,6.25,15.321044378262277,0,15.321044059059616,NaN,NaN,0,100,67.45270361315406,25,11.906228525850784,5.910285379919803,33.577479414785685
Casabianca,Tolima,73152,5.0914435269950005,-75.08797299529999,NaN,NaN,96.96969696969697,96.5552876334826,26.905417814508723,36.56773190539702,1.8181818181818181,36.56772756069902,NaN,NaN,9.090909090909088,100,92.81121335892263,0,0,0,41.883494417372624
Castilla la Nueva,Meta,50150,3.7997360375883336,-73.5310106859,NaN,NaN,96.045197740113,97.35754278543654,46.49406300871397,56.91414640888731,8.479446717319306,35.37121905038641,NaN,NaN,11.15819209039548,58.474576271186436,86.06306624393014,3.9548022598870056,18.503967341517164,9.185421513759128,45.543385779681856
Caucasia,Antioquia,5154,7.940203249063125,-75.05349437685,20,97.60479041916167,42.30769230769231,32.39609843942224,51.93951347797502,53.18857318648539,1.349527665317139,6.377146196977344,6,92.40506329113924,10.256410256410255,35.8974358974359,37.83455959665773,7.6923076923076925,1.4543778053410046,0.7219572395342176,33.817353925809414
Cepitá,Santander,68160,6.75351840155,-72.9735364646,NaN,NaN,100,100,25,25.54415012045083,0,25.544142754884618,NaN,NaN,0,100,100,0,0,0,40.958559101859166
Cereté,Córdoba,23162,8.896596506361579,-75.81055283314737,NaN,NaN,95.16129032258064,80.59808380957159,7.05766874061951,28.543647771701973,3.4119597092949125,28.543647718214192,NaN,NaN,27.068723702664798,45.44179523141655,85.70716139662781,6.521739130434782,0,0,34.50109725590114
Cerinza,Boyacá,15162,5.95602818885,-72.948275851,NaN,NaN,100,100,47.916666666666664,58.86461887303231,25,58.86461679337375,NaN,NaN,25,100,100,0,0,0,50.616480503609
Cerrito,Santander,68162,6.831652179904999,-72.69538934479999,NaN,NaN,95,99.30245478205356,56,66.14860098272436,2.2222222222222223,32.2972018044059,NaN,NaN,5,100,90.85043608030918,0,0,0,44.8170349923676
Cerro San Antonio,Magdalena,47161,10.29819055902,-74.83839984164,NaN,NaN,100,100,75,78.515625,0,57.031249776204426,NaN,NaN,0,100,100,0,0,0,48.046875
Chachagüí,Nariño,52240,1.3894421932481817,-77.28505918884545,NaN,NaN,100,100,58.33333333333333,67.41686371660653,6.666666666666667,45.694772128942624,NaN,NaN,6.666666666666669,100,100,5,1.5408362947513385,0.7648754772299227,47.61114322623525
Chaguaní,Cundinamarca,25168,4.9489158269,-74.5934552918,NaN,NaN,57.14285714285714,67.55533605627836,18.36734693877551,35.41018552712124,4.761904761904762,35.410185243784454,NaN,NaN,14.285714285714292,100,98.24531594659017,14.285714285714285,7.113703680598878,3.531262546257981,38.24539465198296
Chalán,Sucre,70230,9.532326873606,-75.31061195964,NaN,NaN,100,100,50,84.36231346483548,0,84.36231314650277,NaN,NaN,0,100,100,0,0,0,48.578392133166865
Chámeza,Casanare,85015,5.21431174949,-72.8702355842,NaN,NaN,50,69.95368447237578,16.666666666666664,25.255697329513733,0,25.25569668748446,NaN,NaN,0,100,89.55532283262744,33.33333333333333,8.191721132897603,4.0663934463399,36.092983564886765
Chaparral,Tolima,73168,3.717383947572,-75.60556756436,NaN,NaN,99.65517241379311,99.26452792930766,50.63462404383077,56.1193724376838,7.836662516465472,37.313388071118155,NaN,NaN,14.614121510673236,91.6256157635468,93.9807970804144,0,0,0,45.51799737159884
Charalá,Santander,68167,6.230568521716666,-73.14366172933333,NaN,NaN,87.5,95.34384798547751,21.8125,32.912368188543304,6.785714285714286,32.91236751278312,NaN,NaN,16.25,100,90.39300280547894,37.5,27.697077922077924,13.74890750281978,48.17667442637379
Charta,Santander,68169,7.28082047249,-72.9687984566,NaN,NaN,87.5,89.12850697372494,31.944444444444446,36.21496960733772,13.333333333333334,36.21496830717974,NaN,NaN,25,100,100,0,0,0,43.920114032621854
Chía,Cundinamarca,25175,4.8707118847599995,-74.05836754386154,NaN,NaN,87.22222222222223,85.4471976488155,43.31349206349206,49.48693780428928,0,39.384324037452146,NaN,NaN,0,100,90.97601159622431,1.1111111111111112,0.3888888888888889,0.1930455399392745,40.45996105535866
Chigorodó,Antioquia,5172,7.597805034473334,-76.65861022205,NaN,NaN,78.78787878787878,68.54652609424919,47.474747474747474,56.21331709937871,0,34.31997476781633,NaN,NaN,0,100,89.61493566824599,0,0,0,38.857493324401645
Chimá,Córdoba,23168,9.094356576396667,-75.65286788034444,NaN,NaN,46.15384615384615,65.33101404882716,8.875739644970414,20.30867549124598,1.282051282051282,20.308675281363335,NaN,NaN,7.692307692307693,100,72.76032188862482,0,0,0,29.30945056380668
Chimá,Santander,68176,6.34435172066,-73.373747738,NaN,NaN,46.15384615384615,65.33101404882716,8.875739644970414,20.30867549124598,1.282051282051282,20.308675281363335,NaN,NaN,7.692307692307693,100,72.76032188862482,0,0,0,29.30945056380668
Chimichagua,Cesar,20175,9.257190096935757,-73.82545586000909,NaN,NaN,100,100,54.53559027777778,58.411581976215686,0.4166666666666667,16.823162643799815,NaN,NaN,1.5625,100,72.15318522581205,1.5625,0,0,43.3960998363848
Chinácota,Norte de Santander,54172,7.610811020763333,-72.60440914536667,NaN,NaN,96.15384615384616,98.51651876996802,13.621301775147929,28.545937358328857,5.256410256410256,28.54593704786031,NaN,NaN,21.538461538461533,100,87.08083524678833,0,0,0,40.973937372631916
Chinavita,Boyacá,15172,5.16748382122,-73.3684764814,NaN,NaN,60.00000000000001,88.07661176549078,20,59.02298076410545,0,59.02298044768496,NaN,NaN,0,100,98.45561968337422,0,4.18513555303577,2.077513077998171,39.25616916763676
Chinchiná,Caldas,17174,4.9685362789875,-75.652283047625,NaN,NaN,98.88888888888889,99.57746121211144,46.074074074074076,57.13338107061799,0.8045977011494253,35.70007066802123,NaN,NaN,5.555555555555553,100,82.48038306585624,0,0,0,43.58357708902289
Chinú,Córdoba,23182,9.033475768963449,-75.36202532998276,NaN,NaN,75,92.21986660862322,20.833333333333332,46.30062337445523,0,46.30062324255377,NaN,NaN,0,100,95.29454334074143,0,0,0,39.058942423377566
Chipaque,Cundinamarca,25178,4.437041953923333,-74.0252248078,NaN,NaN,55.55555555555556,77.1742356782428,16.049382716049383,29.29003669873603,5.555555555555555,29.290036370792084,NaN,NaN,22.222222222222214,100,90.43855743544079,0,0,0,36.025958714709304
Chipatá,Santander,68179,6.08849324192,-73.63065755024999,NaN,NaN,88.88888888888889,85.9744116300028,56.79012345679013,56.76034164014436,2.7777777777777777,13.520682002653162,NaN,NaN,5.555555555555557,100,74.90286170165615,5.555555555555555,2.7777777777777777,1.3788967138519606,42.50198826893491
Chiquinquirá,Boyacá,15176,5.61412789039,-73.8183876347,NaN,NaN,86,86.583870423139345,71.971875,78.15112061443925,21.79824561403509,56.302240498247656,NaN,NaN,10,89,87.78083630798491,2.125,0.9992244195715403,0.4960178166772187,45.73787720316703
Chíquiza,Boyacá,15232,5.622546639665,-73.46734905330001,NaN,NaN,90.625,95.53511784033805,50.34722222222222,52.200859013870314,11.111111111111109,36.267808788743444,NaN,NaN,8.333333333333336,100,93.80188330766615,8.333333333333332,2.008624054629659,0.9970866389854217,45.41502929552684
Chiriguaná,Cesar,20178,9.416542310948,-73.52775507516,NaN,NaN,99.56709956709958,99.61679376332725,42.18952043627368,47.39260168474639,0.1367053998632946,21.08890178523428,NaN,NaN,3.030303030303031,58.44155844155844,75.0954545481828,0,0,0,39.17383006740784
Chiscas,Boyacá,15180,6.563968110439999,-72.48669977899999,NaN,NaN,100,100,65.625,65.20468695604481,21.428571428571427,30.409373525449496,NaN,NaN,18.75,100,94.22184076741021,0,0,0,48.40044482309415
Chita,Boyacá,15183,6.18708299638,-72.4718923521,NaN,NaN,75,84.5792849767883,62.5,73.0230284463995,50,73.02302823634199,NaN,NaN,25,100,100,0,0,0,51.82748303847162
Chitagá,Norte de Santander,54174,7.101083579046,-72.60558660702,NaN,NaN,100,100,12.396694214876035,20.87641768263931,3.6363636363636362,20.876417185610645,NaN,NaN,18.181818181818173,100,81.02934044921517,0,0,0,39.647330378628396
Chitaraque,Boyacá,15185,6.02742513316,-73.4471004029,NaN,NaN,100,100,17,24.49929243962991,7.777777777777778,24.499290179301727,NaN,NaN,20,100,85.79634722416728,5,2.5,1.2410070424667647,42.16494768036743
Chivatá,Boyacá,15187,5.55894884501,-73.2825294417,NaN,NaN,88.88888888888889,83.38581596091927,28.88888888888889,37.84755307663467,0,37.847550390323434,NaN,NaN,0,100,94.33116312898096,5.5555555555555545,1.8518518518518519,0.919264475901307,40.15172562069285
Chivolo,Magdalena,47170,10.053562273193334,-74.50555881493334,NaN,NaN,92.85714285714286,97.33730004265033,39.002267573696145,46.474410487388454,21.428571428571427,46.47440995543362,NaN,NaN,30.952380952380956,100,97.33730004265033,0,0,0,47.76267030768004
Chivor,Boyacá,15236,4.8877816607,-73.3668937555,NaN,NaN,100,100,50,50.585097378959844,0,50.58509663157407,NaN,NaN,0,100,100,50,9.701637016800396,4.815919944522218,51.37296857638931
Choachí,Cundinamarca,25181,4.570563418563333,-73.922870858,NaN,NaN,87.5,94.66811751904244,12.5,76.36878804491326,0,76.36878799348517,NaN,NaN,0,100,100,12.5,4.166666666666666,2.0683450707779407,44.52471975467275
Chocontá,Cundinamarca,25183,5.14522389367,-73.6835234355,NaN,NaN,73.91304347826087,73.92315256591714,40.32986460775303,49.74597762575896,1.6128349798723915,32.994636437586074,NaN,NaN,12.184024266936298,61.375126390293225,69.9964128975993,0,0,0,33.50766756776818
Cicuco,Bolívar,13188,9.226225418266667,-74.70924774663334,NaN,NaN,100,100,10.743801652892564,29.307375105693872,1.8181818181818181,29.307374952217057,NaN,NaN,9.090909090909093,100,85.00214957264491,0,0,0,39.63294702184748
Ciénaga,Magdalena,47189,10.929009546744444,-74.13831838338889,NaN,NaN,71.875,74.7956177032667,59.125,64.85079250954837,7.777777777777778,29.701584654502078,NaN,NaN,12.5,100,95.63675156864707,0,0,0,40.10033408054795
Ciénaga de Oro,Córdoba,23189,8.852828540304285,-75.61398702378571,NaN,NaN,58.82352941176471,45.309038656846205,7.9584775086505175,23.309453407334185,2.2058823529411766,23.30945335297279,NaN,NaN,17.64705882352942,100,87.8519557509138,35.294117647058826,5.60723683412759,2.7834481599725542,35.162745323012636
Ciénega,Boyacá,15189,5.40870219185,-73.2960612914,NaN,NaN,86.66666666666667,96.38436922886464,53.77777777777778,71.1078141784972,5,56.66172015956444,NaN,NaN,6.666666666666667,100,100,0,0,0,45.56999647137633
Cimitarra,Santander,68190,6.3783402921115,-74.214510352785,NaN,NaN,94.44444444444444,99.27457565811304,15.740740740740739,22.904659180812637,5.294117647058823,22.904659039417794,NaN,NaN,22.22222222222222,75,85.9932419647796,0,1.4643831151274334,0.7269239034970255,38.460482625163266
Circasia,Quindío,63190,4.5944171800284614,-75.66376196745385,17,97.96407185628743,80.55555555555556,82.32692893254281,46.22222222222222,52.12810085382099,6,42.55371897070361,3,96.20253164556962,6.666666666666667,100,98.49954271271311,0,0,0,44.11596577282182
Cisneros,Antioquia,5190,6.53776195685,-75.0872076079,NaN,NaN,100,100,27.19198790627362,46.08558462744503,0.634920634920635,46.08558333910494,NaN,NaN,6.349206349206351,79.36507936507937,88.65273030865076,11.111111111111109,1.7490551776266061,0.8682359172390304,42.00071921795932
Ciudad Bolívar,Antioquia,5101,5.838994744234,-76.01144037846,NaN,NaN,50,50,72,72.46008329596684,30,44.92016601806167,NaN,NaN,20,100,100,0,0,0,37.90546211781517
Clemencia,Bolívar,13222,10.552236022433332,-75.27663549413333,NaN,NaN,78.57142857142857,70.63159738432577,9.183673469387754,17.375728674183208,2.197802197802198,17.375728561760454,NaN,NaN,14.285714285714292,100,74.5649984738808,14.285714285714285,0,0,34.64515066749426
Cocorná,Antioquia,5197,6.042443199796667,-75.1606239508,NaN,NaN,92.85714285714286,99.15984803141382,13.729128014842301,22.658512480385784,2.380952380952381,22.658511931087112,NaN,NaN,7.142857142857146,100,74.42905458595064,0,0,0,37.48704504486773
Coello,Tolima,73200,4.3381367203237495,-74.91387119063751,NaN,NaN,90,92.72037574526067,55,60.29816341908616,0,47.064214899915015,NaN,NaN,0,100,98.98770235091624,5,3.3731352166674133,1.6744338236307665,44.982444087984746
Cogua,Cundinamarca,25200,5.066563645566363,-73.97315615007273,NaN,NaN,0,0,50,53.12300746012015,0,53.123006264354736,NaN,NaN,0,100,100,50,0,0,32.10209158728365
Colombia,Huila,41206,3.4981968044366667,-74.74190197856666,NaN,NaN,100,100,64.58333333333333,74.13378718251981,0,48.26757326136296,NaN,NaN,0,100,100,0,0,0,46.701556410532106
Colón,Nariño,52203,1.654023569935,-77.053214207075,NaN,NaN,88.46153846153847,83.2646381203689,53.84615384615385,56.69744762458855,0,13.394894505721314,NaN,NaN,0,100,64.39175227535992,0,0,0,39.95142310821179
Colón,Putumayo,86219,1.1992081475625,-76.95896219824999,NaN,NaN,88.88888888888889,95.54348813758841,16.049382716049383,35.77985862669277,5.555555555555555,35.77985790760276,NaN,NaN,22.222222222222214,100,93.09800524625503,0,0,0,41.55794558120475
Coloso,Sucre,70204,9.511061542453847,-75.3611858034077,NaN,NaN,76.92307692307693,84.26476679235873,55.02958579881657,58.58068850702751,2.564102564102564,17.16137687602463,NaN,NaN,7.692307692307693,100,72.98428079293053,0,0,0,40.478601581100364
Cómbita,Boyacá,15204,5.6304199777,-73.30886938503333,32,96.16766467065868,75,75,32.30861686390533,39.73951060130378,2.4954212454212454,39.73950850021332,6.5,91.77215189873418,10.817307692307693,100,88.05953670967847,0,0,0,41.8211534193817
Concepción,Antioquia,5206,6.39434709534,-75.2576027037,NaN,NaN,88.46153846153847,96.80091015564437,28.402366863905325,50.602462803681945,1.5384615384615385,50.602461726002616,NaN,NaN,15.384615384615387,76.92307692307693,86.3383293802286,3.8461538461538463,25.633615515793593,12.724598951594071,44.24146634769946
Concepción,Santander,68207,6.76883652788,-72.6945942537,NaN,NaN,76.92307692307693,93.60182031128876,6.8047337278106506,24.75591877427683,3.076923076923077,24.755918625829445,NaN,NaN,30.769230769230774,53.846153846153854,72.6766587604572,7.6923076923076925,51.26723103158719,25.449197903188143,40.62393207420919
Concordia,Antioquia,5209,6.0532782162925,-75.889832606,NaN,NaN,97.6923076923077,95.37506927265741,13.340236686390533,18.806653020691968,0.07211538461538462,18.806650291346205,NaN,NaN,1.53846153846154,100,73.42182560646398,0,0,0,36.38606083650805
Concordia,Magdalena,47205,10.246662177325,-74.80835696529999,NaN,NaN,95.38461538461539,90.75013854531481,1.680473372781065,10.792947217933195,0.14423076923076925,10.792947039159966,NaN,NaN,3.07692307692308,100,46.84365121292797,0,0,0,31.697543598156933
Condoto,Chocó,27205,5.08569366242,-76.5779255517625,NaN,NaN,100,100,12.396694214876035,18.864950290216495,3.6363636363636362,18.864950191866228,NaN,NaN,18.181818181818173,100,79.39203919630909,0,0,0,39.315624138143946
Confines,Santander,68209,6.35732748987,-73.2405538757,NaN,NaN,100,100,41.666666666666664,55.41752202245556,10,55.4175203969975,NaN,NaN,16.66666666666667,100,100,0,0,0,47.61371412325353
Consaca,Nariño,52207,1.2205288364375,-77.4790211074,NaN,NaN,96.29629629629629,94.85165913443495,46.31915866483767,46.86574950785706,0.9971509971509971,20.298623426629405,NaN,NaN,8.641975308641975,75.92592592592592,69.98587082547057,0,0,0,40.083103401009055
Contadero,Nariño,52210,0.9186250202283333,-77.52468199696666,NaN,NaN,71.96969696969697,70.41654964542515,42.30853994490358,49.9895164776318,2.239057239057239,33.31935462708565,NaN,NaN,12.575757575757574,84.84848484848484,83.26272349103428,0,0.9580193381118429,0.4755634981664582,35.92784933032961
Contratación,Santander,68211,6.29743846696,-73.52340949455,NaN,NaN,100,100,20,38.239425037501434,0,38.239423765594644,NaN,NaN,0,100,99.99999999999999,20,4.017571103770752,1.9943336133561906,44.02284815951167
Convención,Norte de Santander,54206,8.468918,-73.337638,NaN,NaN,71.42857142857142,67.82669312027456,22.448979591836732,34.09904753250269,9.523809523809524,34.099046825752154,NaN,NaN,28.57142857142857,100,96.78266931202745,0,0,0,39.152836280040994
Copacabana,Antioquia,5212,6.3386985445025,-75.5041646004,NaN,NaN,100,100,5.648934465630508,28.410522826135782,0.01622849724115547,28.41052277832832,NaN,NaN,0.6329113924050631,100,80.42335152573165,1.2658227848101267,7.532289802378722,3.739049876261036,38.87901010641764
Coper,Boyacá,15212,5.47498301805,-74.0454607199,NaN,NaN,96.96969696969697,98.62617811421096,72.45179063360882,73.14041321681569,9.090909090909092,19.421239232106384,NaN,NaN,12.121212121212123,100,92.24434495210679,0,0,0,47.311003854837864
Córdoba,Bolívar,13212,9.479199413123332,-74.90806187431333,NaN,NaN,87.17948717948718,89.53068342093154,1.7094017094017089,7.615447132562707,0.4329004329004329,7.6154470447679685,NaN,NaN,15.384615384615387,29.48717948717949,50.72485842358899,3.8461538461538463,1.0827515065951572,0.5374808979704359,26.13917812921699
Córdoba,Nariño,52215,0.86295835651775,-77.5286008885,NaN,NaN,71.7948717948718,72.38267085523289,75.42735042735043,76.90386178314068,66.81096681096682,69.20514901492265,NaN,NaN,28.846153846153847,76.4957264957265,83.574952807863,0.9615384615384616,0.2706878766487893,0.13437022449260896,46.87570362321334
Córdoba,Quindío,63212,4.39248544874,-75.6878663583,NaN,NaN,95.72649572649573,96.51022780697718,42.236467236467234,44.901685451622406,0.21645021645021645,17.35252688434779,NaN,NaN,5.128205128205129,64.74358974358975,75.36242921179449,1.2820512820512822,0.3609171688650524,0.17916029932347863,39.07941117102095
Corinto,Cauca,19212,3.1761894478842856,-76.24721817081428,NaN,NaN,90.9090909090909,92.6920256377936,54.54545454545455,67.5651208680496,0,35.13024133549202,NaN,NaN,0,100,83.6547897261805,0,0,0,42.958098802134444
Coromoro,Santander,68217,6.2671444031900005,-73.0595067797,NaN,NaN,75,85.44030015157233,62.5,65.74715906482825,0,31.494316853548053,NaN,NaN,0,100,100,0,0,0,42.15340538330915
Corozal,Sucre,70215,9.23529083300625,-75.28723848705624,62.416666666666664,92.52495009980039,88.75,89.39604885552974,73.75,76.9232790550456,20,53.846554673448736,1,98.73417721518987,5,100,95.4822052315209,0,2.2245875,1.1042915016334136,51.24853126647278
Corrales,Boyacá,15215,5.82810220795,-72.8447948409,NaN,NaN,93.75,98.68419761067655,60.9375,69.62476226391048,10.714285714285714,39.249523728464744,NaN,NaN,18.75,100,91.24465090144174,0,0,0,47.06599347113189
Cota,Cundinamarca,25214,4.81298776927,-74.1027264632,NaN,NaN,25,32.03748353588845,69.44444444444444,85.09945388094162,0,55.2983616229304,NaN,NaN,0,100,96.45181621522747,5.5555555555555545,4.4497989427589735,2.2088927302100196,30.843597075291658
Cotorra,Córdoba,23300,9.047266178405714,-75.78525752125,NaN,NaN,83.33333333333333,85.95053322143633,11.555555555555555,21.455316852148535,1.1111111111111112,21.455316422593746,NaN,NaN,5,100,78.49476478275284,0,0,0,35.172783168757974
Covarachía,Boyacá,15218,6.51546970705,-72.75690427825,NaN,NaN,50,61.1811390172242,83.33333333333333,90.83440551668293,0,72.50321621993226,NaN,NaN,0,100,100,0,0,0,38.81959495762792
Coveñas,Sucre,70221,9.389444070986666,-75.67473699286667,NaN,NaN,94.44444444444444,94.2709376546008,30.555555555555557,33.43677318482949,0,33.43677236165772,NaN,NaN,0,100,86.46414471339054,0,0,0,39.92471414116553
Coyaima,Tolima,73217,3.7530830186166666,-75.08991458481667,NaN,NaN,97.22222222222223,98.5465763948787,47.06018518518518,55.07594290499537,16.884531590413943,50.08437910193433,NaN,NaN,18.333333333333336,100,94.01471893020798,3.6805555555555554,0,0,47.702558278611825
Cravo Norte,Arauca,81220,6.30391275247,-70.2042855518,NaN,NaN,92,76.3545703659804,9.44,14.149445560071152,5.666666666666666,14.14944508798435,NaN,NaN,43.99999999999999,52,60.60186141771122,0,0,0,32.2011403645845
Cuaspud,Nariño,52224,0.862978103157,-77.728946826,5,99.40119760479041,78.75,79.65383689270459,55.208333333333336,61.38960026962427,1.1111111111111112,35.64933034672733,2,97.46835443037975,3.75,100,84.98244227321378,4.166666666666666,1.3124115258362565,0.6514847784709387,43.883426302550035
Cubará,Boyacá,15223,6.9978326651725,-72.05879851005,NaN,NaN,77.77777777777777,87.01265890628197,59.25925925925926,65.04672257774487,8.333333333333332,30.093444825090188,NaN,NaN,11.111111111111107,100,89.34787723891175,0,0,0,43.0952849925725
Cubarral,Meta,50223,3.78634131905,-73.847983932,NaN,NaN,100,100,50,45.14238035014725,33.33333333333333,45.142378090739484,NaN,NaN,37.5,100,100,12.5,4.166666666666666,2.0683450707779407,53.15552049281138
Cucaita,Boyacá,15224,5.54445155869,-73.4543376458,NaN,NaN,83.33333333333333,92.41272257050109,32.407407407407405,45.54985914396461,11.111111111111109,45.54985659634616,NaN,NaN,11.111111111111114,100,95.1548838212713,5.5555555555555545,1.1111111111111112,0.5515586855407844,43.48169580462795
Cucunubá,Cundinamarca,25224,5.249767987,-73.7662153323,NaN,NaN,80.76923076923077,83.58170320597378,8.437990580847723,14.18869880565849,1.098901098901099,14.188698109872892,NaN,NaN,7.142857142857146,100,70.28267609745265,7.6923076923076925,5.479779072669466,2.7201777681379213,34.67221111218516
Cúcuta,Norte de Santander,54001,7.896264,-72.507036,135.33333333333334,83.79241516966067,82.11591136965141,81.43702080131962,44.959142657889046,51.39111226462877,8.380010237941962,32.487654433582726,1,98.73417721518987,8.04577990166882,86.54734302556705,82.1005042979619,3.6027235150360086,1.0217329326359534,0.5071911059685754,39.83518543186348
Cúcuta,Norte de Santander,54001,8.139360181564,-72.46456641746286,23.504166666666666,97.18512974051896,20,20,69.89583333333333,73.03401142895727,17.261904761904763,55.05668331134399,3.7041666666666666,95.31118143459915,6.25,100,97.28869749121597,NaN,0,0,47.44610683231103
Cucutilla,Norte de Santander,54223,7.539238,-72.77297,NaN,NaN,93.05555555555554,86.20843530701703,19.212962962962962,23.178518131341296,1.1904761904761905,23.178517278235677,NaN,NaN,19.444444444444443,87.5,80.03450521886815,0,0,0,37.25680889187869
Cuítiva,Boyacá,15226,5.59031334933,-72.9389911419,NaN,NaN,61.11111111111111,65.10818203600297,55.55555555555555,57.54990504304014,10,36.32485548808173,NaN,NaN,11.111111111111114,100,100,0,0,0,37.76689680516554
Cumaral,Meta,50226,4.250733366972,-73.39397201356,NaN,NaN,95.83333333333333,94.3420391827989,46.78819444444444,49.715247694825266,0.4166666666666667,24.57286916523418,NaN,NaN,2.0833333333333335,100,76.36632579396449,2.0833333333333335,2.0833333333333335,1.0341725353889706,41.98348322707985
Cumaribo,Vichada,99773,4.476355685550589,-69.57572781311765,NaN,NaN,98.95833333333333,99.10714645180299,46.81712962962963,46.51227172070192,16.666666666666664,19.76840734585936,NaN,NaN,25,100,64.22748536019397,5.729166666666667,1.5314865454490312,0.7602342353381378,45.00107908492383
Cumbal,Nariño,52227,0.8508789136792857,-77.8380007172,NaN,NaN,93.75,97.09728023015984,46.33013372359963,54.15563137487424,16.31313131313131,38.87417426780589,NaN,NaN,26.79924242424243,90.9090909090909,88.51907488659047,3.125,1.1631945312499998,0.5774130420160307,46.11853346888652
Cumbitara,Nariño,52233,1.7256364505622224,-77.58381426692222,NaN,NaN,94.28571428571428,95.93320599480498,59.48979591836735,59.854561257777995,27.38095238095238,49.818200203896254,NaN,NaN,15.714285714285714,100,97.80542134727214,2.8571428571428568,0,0,48.93489136460662
Cunday,Tolima,73226,3.9847961904185714,-74.67504098204286,NaN,NaN,100,100,15.107709750566894,32.56982199040827,0.2380952380952381,32.56981475664972,NaN,NaN,2.3809523809523867,100,92.35516139994078,2.380952380952381,1.1904761904761905,0.5909557345079831,40.61946591508183
Curillo,Caquetá,18205,1.0689554784375002,-76.01517000775,NaN,NaN,71.42857142857142,71.65799771470624,22.448979591836732,21.124523875042463,9.523809523809524,21.124523309476988,NaN,NaN,28.57142857142857,100,85.659282198459,0,0,0,37.31041753671399
Curití,Santander,68229,6.60510678535,-73.0693905206,NaN,NaN,88.88888888888889,98.8548274794687,34.5679012345679,52.00666100855961,18.055555555555554,52.00665850038952,NaN,NaN,22.22222222222223,100,97.58595013777776,0,0,0,46.56200059336733
Curumaní,Cesar,20228,9.226124206318334,-73.60061864663334,NaN,NaN,86.66666666666667,92.33699608757996,60.833333333333336,66.5173040344834,25,49.77595496666618,NaN,NaN,16.666666666666668,100,95.7553527663764,6.666666666666667,6.568800608403005,3.260771126235239,48.7897673061472
Dabeiba,Antioquia,5234,7.0120383221111116,-76.17636809091111,NaN,NaN,100,100,58.33333333333333,71.74659326665407,0,43.49318563540292,NaN,NaN,0,100,92.48392991120042,50,0,0,51.82471741414433
Dagua,Valle del Cauca,76233,3.6404187719192858,-76.68480650776786,NaN,NaN,97.31182795698925,92.86955249174378,76.05792577176553,79.81004563004018,1.6129032258064515,39.430133758428035,NaN,NaN,6.451612903225807,85.48387096774194,82.50741285788469,6.451612903225807,3.211212924312641,1.5940551415729125,47.299324976365476
Dibula,La Guajira,44090,11.238014158236364,-73.33876697070909,NaN,NaN,91.66666666666667,90.45433288049209,65.06076388888889,70.98458570519024,50.138888888888886,70.98458450156973,NaN,NaN,26.041666666666668,100,98.27306251547651,8.333333333333334,3.5040932197389654,1.7394417452624384,55.108803228236795
Distracción,La Guajira,44098,10.881936638166668,-72.90198839463334,NaN,NaN,100,100,70.83333333333333,72.38011438547773,4.545454545454546,17.140342911526105,NaN,NaN,8.333333333333334,100,74.90623088041,0,0,0,46.4876372297666
Dolores,Tolima,73236,3.62040996225,-74.81193478673333,NaN,NaN,93.75,95.39603097169874,50.86805555555556,56.664528894952554,16.03174603174603,42.219370660291354,NaN,NaN,21.875,100,99.31974599359306,0,0,0,47.05156676738283
Don Matías,Antioquia,5237,6.517541563452,-75.29618036394,NaN,NaN,75,75.7103710761066,9.72222222222222,11.781851249551739,1.5151515151515151,11.781850655802902,NaN,NaN,8.333333333333343,100,58.615587060410945,8.333333333333332,7.372906088350255,3.659931351635501,32.73133520273595
Dosquebradas,Risaralda,66170,4.833662528244117,-75.66663024883529,NaN,NaN,93.75,93.75,52.99062411422902,61.30806019715689,3.392857142857143,38.09289407256265,NaN,NaN,7.950148809523809,98,94.35195950808153,4.114583333333333,2.5442347452931213,1.2629652946389593,44.68851153645562
Duitama,Boyacá,15238,5.8121230164025,-73.0452854746375,30,96.40718562874252,54.703832752613245,56.421765514898134,65.61495708336874,70.43588321552762,1.6575410652065705,31.017058345029973,9.5,87.9746835443038,9.547038327526133,60.11382113821138,84.15098523821598,19,7.363354392539946,3.6551898629282635,40.06815882492062
Durania,Norte de Santander,54239,7.720239733856,-72.65914540468,NaN,NaN,96.42857142857142,93.97705129936527,8.928571428571429,8.509193094593448,5.555555555555555,8.50919199140137,NaN,NaN,42.85714285714286,67.85714285714286,46.4747361719368,3.571428571428571,1.1904761904761905,0.5909557345079831,34.176438653572035
Ebéjico,Antioquia,5240,6.310625977058334,-75.76141899305,NaN,NaN,100,100,54.437869822485204,59.844155074460474,1.282051282051282,19.68830986600521,NaN,NaN,3.8461538461538467,100,79.41870680927387,3.8461538461538463,2.6487663280116114,1.3148550667644967,44.662575729972005
El Águila,Valle del Cauca,76243,4.914341323524286,-76.04409449415714,NaN,NaN,100,100,77.77777777777777,86.33159897621177,66.66666666666666,86.33159783267988,NaN,NaN,41.66666666666667,100,100,0,0,0,61.1311554624839
El Bagre,Antioquia,5250,7.594277154615834,-74.72749794424166,NaN,NaN,50,62.32401407537236,47.82986111111111,58.49778534402267,2.083333333333333,37.74667782630484,NaN,NaN,8.333333333333334,100,92.87723847877837,4.166666666666667,4.9588259509555535,2.461575171001117,35.77688874489733
El Banco,Magdalena,47245,9.105763208731304,-74.01415216841305,NaN,NaN,97.33333333333333,99.25034929855813,13.574980389131076,49.88073219164108,6.795282012673317,49.88073168499602,NaN,NaN,30.74948240165632,85.33333333333334,89.32647200097928,0,0.6666666666666666,0.33093521132447057,43.021960621754275
El Cairo,Valle del Cauca,76246,4.771677432665,-76.1973846524,NaN,NaN,93.33333333333333,98.06602119889905,11.111111111111112,30.501981169143118,4.761904761904762,30.50198083228172,NaN,NaN,33.33333333333334,66.66666666666666,86.34315295478201,0,0,0,38.5561367753794
El Calvario,Meta,50245,4.36412466365,-73.702831548825,NaN,NaN,50,50,100,100,NaN,NaN,NaN,NaN,0,NaN,NaN,0,0,0,37.5
El Cantón del San Pablo,Chocó,27135,5.334413641925,-76.71887447405,NaN,NaN,83.33333333333333,94.46658475183239,16.666666666666664,50.77117334282568,0,50.77117320630514,NaN,NaN,0,100,91.93345983651326,0,0,0,39.742837993742846
El Carmen,Norte de Santander,54245,8.649584227426667,-73.4203146368,NaN,NaN,97.36842105263158,96.17459163765733,6.648199445983378,38.56203064665725,4.125177809388336,38.56203053201075,NaN,NaN,52.631578947368425,71.05263157894737,80.45309629485875,0,0,0,40.63779340122658
El Carmen de Atrato,Chocó,27245,5.847510556681429,-76.17646389077143,NaN,NaN,76.19047619047619,67.33818560196882,7.029478458049887,27.48812435121366,2.380952380952381,27.48812411800578,NaN,NaN,19.04761904761905,100,77.76948683555963,0,2.664782342881952,1.322805461663035,34.65744642458042
El Carmen de Bolívar,Bolívar,13244,9.705581852902352,-75.18755540985882,NaN,NaN,100,100,3.214124038026256,20.72422911338314,1.1100832562442182,20.724229077414677,NaN,NaN,23.40425531914893,44.680851063829785,80.11676990519442,2.127659574468085,2.127659574468085,1.0561762063546931,34.414709822828875
El Carmen de Chucurí,Santander,68235,6.670604566596667,-73.61348697458334,NaN,NaN,100,100,30.10204081632653,48.78151544109125,1.6483516483516485,48.78151486039051,NaN,NaN,10.714285714285715,100,94.42884698697051,17.857142857142858,8.928571428571429,4.432168008809874,46.99026571832271
El Carmen de Viboral,Antioquia,5148,6.071094997096,-75.33636797376,NaN,NaN,98.55072463768116,98.7591071216366,19.06243436252888,28.121511667965844,2.644456992283079,28.121509288681615,NaN,NaN,11.231884057971016,100,86.68056700131434,5.797101449275362,0.712547342995169,0.3537105082991943,41.08309501290461
El Castillo,Meta,50251,3.5993070511025,-73.857024435475,NaN,NaN,100,100,19.11111111111111,51.577601729174226,13.333333333333334,51.57760133293641,NaN,NaN,53.333333333333336,86.66666666666667,94.83411432040296,0,0,0,47.168741863092876
El Cerrito,Valle del Cauca,76248,3.65921188576,-76.21543008072,NaN,NaN,97.91666666666666,99.39922695646331,7.777777777777777,33.24018999302653,0.7246376811594203,33.240189845268446,NaN,NaN,6.25,100,88.85614447295175,0,0,0,39.46951304982231
El Charco,Nariño,52250,2.4167453981075,-78.10936040542501,NaN,NaN,100,100,51.69753086419753,52.45167863691052,0.46296296296296297,36.60223669254365,NaN,NaN,1.3888888888888893,100,94.77194283876055,0,0,0,44.49675252193541
El Cocuy,Boyacá,15244,6.40771623162,-72.4447293162,NaN,NaN,54.54545454545454,81.06528855250271,20.661157024793393,52.32423030052159,12.727272727272727,52.32423008947076,NaN,NaN,36.36363636363637,100,94.90918664052822,27.27272727272727,30.54185099578967,15.161060870298218,47.77926048122952
El Colegio,Cundinamarca,25245,4.560237297614,-74.43888861248,35,95.80838323353294,81.94444444444444,82.3929713429075,54.799892868074686,64.65704949100073,9.924242424242424,46.985573163570294,3,96.20253164556962,9.84848484848485,100,88.006633833566,3.484848484848485,0.1855287860827265,0.09209701204358937,45.48174260200925
El Copey,Cesar,20238,10.2387925784,-73.9186584199,NaN,NaN,80,97.09634037436058,15.790123456790123,36.409929924669584,5.833333333333334,36.40992958355772,NaN,NaN,20.555555555555557,100,96.3245963697559,0,0,0,41.091807183133184
El Doncello,Caquetá,18247,1.679124,-75.284151,NaN,NaN,100,100,14.288845058075825,31.058220629021598,5.448717948717948,31.058220373116693,NaN,NaN,18.8034188034188,100,83.96591900586901,0,0,0,41.233192858645744
El Dorado,Meta,50270,3.714835985296667,-73.81548909096666,NaN,NaN,87.5,94.90080803020675,37.5,45.94520611101814,0,45.94520011463628,NaN,NaN,0,100,100,0,0,0,42.349637649202265
El Dovio,Valle del Cauca,76250,4.509348558311428,-76.30867290421429,NaN,NaN,100,100,70.83333333333333,73.01610921605885,25,59.524160420069805,NaN,NaN,16.666666666666668,100,100,0,0,0,50.95600992873262
El Espino,Boyacá,15248,6.48302740589,-72.4970073546,NaN,NaN,88.63636363636363,82.43907152050872,27.892561983471076,29.91203274485023,0.6493506493506493,29.912030239069914,NaN,NaN,6.81818181818182,100,76.80100932985238,0,0.6331976481230213,0.31432109623762466,37.64509912972174
El Guamo,Bolívar,13248,10.040501886305,-74.90195461301667,NaN,NaN,76.47058823529412,85.23621709460602,9.342560553633216,25.19185484408688,3.6764705882352944,25.19185470605861,NaN,NaN,23.529411764705884,100,78.97986244241517,5.88235294117647,9.404631493834648,4.668485566261411,38.39840322947719
El Litoral del San Juan,Chocó,27250,4.281474539354242,-77.12970267605758,NaN,NaN,100,100,12.5,37.67119743222108,0,37.67119733265972,NaN,NaN,0,100,97.52249964110182,0,0,0,40.699427006665715
El Molino,La Guajira,44110,10.6535025126,-72.9267433428,NaN,NaN,91.66666666666666,80.37816506965859,12.833008447043532,20.18078550225269,7.8431372549019605,20.18078480648868,NaN,NaN,45.760233918128655,75.73099415204678,83.1686117402375,0,0,0,37.96014570463058
El Paso,Cesar,20250,9.676474015013333,-73.676390482,NaN,NaN,98.95833333333333,98.74298221588113,47.482638888888886,55.87021405207261,0.8454106280193238,41.160285254314836,NaN,NaN,6.25,81.94444444444444,93.0056262126213,0,0,0,43.33188904127179
El Paujil,Caquetá,18256,1.4552542508833333,-75.15928116616666,NaN,NaN,100,100,12.499999999999996,22.80097197441332,4.545454545454546,22.8009715974338,NaN,NaN,25,100,79.0058832251697,8.333333333333332,1.8319555635838152,0.9093879023574742,41.35699877675565
El Peñol,Nariño,52254,1.474495399962,-77.43200671018,NaN,NaN,94.85714285714286,94.94419214432273,63.72592682043231,66.04278258734591,36.23357035121741,43.40463706491004,NaN,NaN,20.54945054945055,64.98168498168498,77.2556616934549,4,0.9004186125030857,0.4469703357137929,46.595403102065966
El Peñón,Bolívar,13268,8.914029076567143,-73.92302697532857,NaN,NaN,83.33333333333333,83.08623970378524,5.709876543209876,22.339373685897293,3.015873015873016,22.33937357092667,NaN,NaN,33.33333333333334,44.44444444444444,70.0731269005891,8.333333333333332,3.3271144278606966,1.651588974427162,32.60433069964426
El Peñón,Cundinamarca,25258,5.264409652283334,-74.31091918766667,NaN,NaN,94.44444444444444,94.36207990126175,17.7196187116822,30.567946931097794,4.1798941798941796,30.56794568053798,NaN,NaN,20.634920634920636,81.48148148148148,88.93151110993394,2.7777777777777772,1.1090381426202323,0.5505296581423873,39.70538572484153
El Peñón,Santander,68250,6.09751118669,-73.879382781116675,NaN,NaN,91.66666666666666,91.54311985189261,27.854938271604937,58.40936847709514,1.507936507936508,58.40936834456527,NaN,NaN,16.66666666666667,72.22222222222223,85.03656345029455,4.166666666666666,1.6635572139303483,0.825794487213581,41.051227316562716
El Piñon,Magdalena,47258,10.351994714323077,-74.68629162404615,NaN,NaN,94.44444444444444,95.84600480613963,55.55555555555556,60.48483609542477,0,20.96967175507386,NaN,NaN,0,100,77.90713633049954,0,0,0,42.753128096983104
El Playón,Santander,68255,7.532040564942,-73.21896238506,NaN,NaN,100,100,55.02958579881657,60.379488013618875,2.564102564102564,20.75897556794829,NaN,NaN,7.692307692307693,100,80.52508057501578,0,0,0,44.51327027948203
El Retén,Magdalena,47268,10.624309474411112,-74.29532958288888,NaN,NaN,100,100,86.11111111111111,88.6978254779099,66.66666666666666,77.39565090596962,NaN,NaN,33.333333333333336,100,100,8.333333333333332,5.008333333333334,2.4861507750750853,57.482129154311764
El Retorno,Guaviare,95025,2.2218452694525,-72.40927555230833,NaN,NaN,87.5,98.02555009737729,62.5,71.10310853199854,50,71.10310848542265,NaN,NaN,25,100,100,12.5,6.571413907388838,3.2620683752134347,56.04201281017983
El Roble,Sucre,70233,9.08198498893,-75.12450423562143,NaN,NaN,77.27272727272727,63.373674197144446,54.54545454545455,57.36102604048919,50,57.36102564991402,NaN,NaN,25,100,85.46588476472867,0,0,0,46.63806971095856
El Rosal,Cundinamarca,25260,4.84675631745,-74.25857914595,NaN,NaN,50,50,61.11111111111111,74.96870663618938,6.666666666666667,49.937413190274015,NaN,NaN,8.333333333333329,100,98.68796641236001,16.666666666666664,7.055555555555555,3.50239765318398,37.43773522686848
El Rosario,Nariño,52256,1.7794613920285716,-77.35156754814285,NaN,NaN,90.9090909090909,95.85578724942602,49.87756351392715,60.040833623527185,14.242424242424242,40.06124927080925,NaN,NaN,19.6969696969697,100,89.52189503996928,0,0,0,45.656647683139695
El Santuario,Antioquia,5697,6.13704685813,-75.2658497944,32,96.16766467065868,60,62.31115867647238,40.839506172839506,50.85962550403524,4.511494252873563,26.28943772921433,8,89.87341772151899,10.740740740740739,100,72.75542044574772,1.6666666666666667,0.14814820512820512,0.07354118635716536,39.53373678114348
El Tablón de Gómez,Nariño,52258,1.43477169291,-77.0516945879,NaN,NaN,92.5925925925926,98.12888100673284,20.16460905349794,27.503766049095727,1.8518518518518519,27.503764567465627,NaN,NaN,7.407407407407405,100,87.74054436940858,0,0,0,39.58087748459881
El Tambo,Cauca,19256,2.4508167495257145,-76.87231223791785,NaN,NaN,92.85714285714286,99.75697194401211,15.958049886621314,57.352917239354824,6.507936507936508,57.35291705148548,NaN,NaN,22.619047619047613,100,97.85554619945407,0,0,0,44.80978293214267
El Tambo,Nariño,52260,1.40764342171,-77.3902046633,NaN,NaN,96.42857142857143,99.87848597200605,64.9234693877551,80.288308293958,51.58730158730159,80.28830755286727,NaN,NaN,32.14285714285714,100,99.53041868609779,0,0,0,56.79812840895883
El Tarra,Norte de Santander,54250,8.59345876695625,-72.94451036166251,NaN,NaN,28.57142857142857,9.462349044929935,14.285714285714285,33.68628743590336,0,33.686287292959214,NaN,NaN,0,100,91.89460880710699,0,0,0,25.26367164955301
El Zulia,Norte de Santander,54261,8.098054379106667,-72.58296873551112,NaN,NaN,100,100,18.904761904761905,33.235873839242686,12.222222222222221,33.235873487207364,NaN,NaN,45.714285714285715,95.23809523809524,90.263260983348,0,0,0,45.05259090017779
Elías,Huila,41244,2.00494651947,-75.9526136437,NaN,NaN,100,100,22,28.499984880044785,8.333333333333334,28.499982985201534,NaN,NaN,25,100,94.80192279311,0,0,0,43.51229463695346
Encino,Santander,68264,6.13740249683,-73.0987380213,NaN,NaN,100,100,17.3241288625904,27.187395324975576,5.897435897435898,27.18739431511402,NaN,NaN,19.87179487179486,100,83.99338053484246,8.333333333333332,0,0,42.055224438633864
Enciso,Santander,68266,6.656598545585,-72.70320652405,NaN,NaN,100,100,100,100,NaN,NaN,NaN,NaN,0,NaN,NaN,0,0,0,50
Entrerrios,Antioquia,5264,6.56648144846,-75.5178008012,NaN,NaN,91.66666666666666,92.48530761059496,19.444444444444443,30.64451677536379,12.121212121212121,30.644516243810592,NaN,NaN,25.000000000000004,100,79.21693981267006,33.33333333333333,7.253076252172636,3.6004474833978755,44.978722227259624
Envigado,Antioquia,5266,6.154151792923043,-75.54186751680434,19.75,97.63473053892216,49.76190476190476,47.152659438937945,74.8452380952381,85.15185602016686,3.7543859649122804,58.425196531661555,3,96.20253164556962,2.857142857142857,100,95.22328174040791,13.541666666666666,6.976936171230605,3.463370769335314,45.46706549159991
Espinal,Tolima,73268,4.1835514835100005,-74.94836239633334,47.5,94.311377245509,66.44628099173553,57.0369224731028,54.82026880373988,66.72005758416577,16.07096607096607,59.32451321093406,13.5,82.91139240506328,12.28650137741047,92.42424242424242,95.2106504964143,19.09090909090909,5.261776416547774,2.61196063552853,44.99312279835275
Facatativá,Cundinamarca,25269,4.8275898939,-74.34223457437646,73,91.25748502994013,90.55555555555556,91.43634351375435,52.507725180802105,66.57125627807102,0.8872608872608873,55.42834076855201,12,84.81012658227847,3.0341880341880327,100,98.7301871195364,0.6060606060606061,0.8105569028424111,0.40236272989899247,45.891446155728275
Falan,Tolima,73270,5.09284265656,-74.97806721543333,NaN,NaN,93.33333333333333,94.53975931457539,58.51851851851852,66.4151211756279,16.666666666666664,49.62268059036306,NaN,NaN,11.111111111111114,100,100,0,0,0,47.12384435432825
Filadelfia,Caldas,17272,5.282956215385714,-75.54873503147142,NaN,NaN,98.0392156862745,98.48670397982174,20.499327181853133,25.79276416728251,9.117647058823529,25.792762261515435,NaN,NaN,28.186274509803923,61.76470588235294,70.18921372474041,2.941176470588235,2.941176470588235,1.4600082852550171,38.12892849248947
Filandia,Quindío,63272,4.690384217705,-75.6833658936,NaN,NaN,98.0392156862745,95.59021374010219,27.191464821222606,37.84920730144358,0.24509803921568626,37.84920389519512,NaN,NaN,1.9607843137254928,100,82.70681792584742,0,0,0,40.32570925707559
Firavitoba,Boyacá,15272,5.66892215993,-72.9933614508,NaN,NaN,77.77777777777777,80.89188892052307,46.29629629629629,58.298629840894925,11.111111111111109,58.29862881373792,NaN,NaN,11.111111111111114,100,100,0,1.7834102258169937,0.885289859938453,44.37777410395179
Flandes,Tolima,73275,4.2350967336859995,-74.834463626,NaN,NaN,98,99.44222556399885,67.8,79.32012527391693,34.81481481481482,65.53354150489771,NaN,NaN,14,100,97.46960740188713,2,1.6666666666666667,0.8273380283111764,51.1297280784468
Florencia,Caquetá,18001,1.6759983438845454,-75.54067328223637,82.26190476190476,90.14827487881381,54.25925925925926,50.78988367548969,52.21829521932229,58.87325988304025,9.099549736122775,38.309888993865584,3.9095238095238094,95.05123568414707,15.86492374727669,92.83846872082167,88.88156177766983,1.6806722689075628,1.8337750997650781,0.9102911252434623,40.58763661036214
Florencia,Cauca,19290,1.70594081116,-77.0678513616,NaN,NaN,100,100,12.5,14.294665751768301,0,14.294664577021754,NaN,NaN,0,100,66.82952547251205,0,0,0,35.78401738402549
Floresta,Boyacá,15276,5.85841334535,-72.93132951655,NaN,NaN,75,79.37720329024677,37,39.697339643366426,7.777777777777778,39.69733843212984,NaN,NaN,25,100,94.88938194115823,0,0,0,41.70379115023175
Florián,Santander,68271,5.80087965797,-73.92688180643333,NaN,NaN,100,100,23.809523809523807,41.18499125024082,0,41.18498832680825,NaN,NaN,0,100,91.96006392261017,0,0,0,41.54132536203407
Florida,Valle del Cauca,76275,3.3044563100961537,-76.24231193157692,NaN,NaN,90.625,98.11569558027156,20.963541666666664,34.26048002814095,1.25,34.2604793683547,NaN,NaN,9.375,100,93.04760689783195,33.33333333333333,16.666666666666664,8.273380283111763,45.99188222327481
Floridablanca,Santander,68276,7.065554132294166,-73.082999213975,NaN,NaN,79.16666666666667,80.68605949545102,83.44907407407408,87.8535419443667,2.083333333333333,51.414166790540996,NaN,NaN,1.3888888888888884,100,94.95105667577337,10.416666666666666,8.345283169138437,4.142622073712064,45.99679456172606
Fomeque,Cundinamarca,25279,4.49404289177,-73.8968605995,NaN,NaN,100,100,13.481481481481483,22.900902001402812,5.119047619047619,22.900901332044,NaN,NaN,23.333333333333336,100,82.52780534647047,0,0,0,40.66932452561234
Fonseca,La Guajira,44279,10.865873916138462,-72.82609976804615,NaN,NaN,84.0909090909091,85.44776959013404,60.46625344352617,67.94089273480512,22.411483253588518,48.70542787977863,NaN,NaN,18.522727272727273,96,90.95686993805084,4.166666666666666,3.2404597339791126,1.6085733402792228,45.746770237981934
Fortul,Arauca,81300,6.71650556742125,-71.618967497875,NaN,NaN,94.44444444444444,94.09415637122926,64.35185185185185,68.79107728354958,0.9803921568627451,37.58215324058577,NaN,NaN,4.166666666666664,100,82.26776527324844,1.3888888888888888,0.6944444444444444,0.34472417846299014,44.99093934950852
Fosca,Cundinamarca,25281,4.341697032095,-73.92594309079999,NaN,NaN,96.29629629629629,93.29956609472839,33.65054869684499,30.86670703701108,25.56980056980057,30.86670441191128,NaN,NaN,32.407407407407405,64.81481481481481,80.88039316576926,0,0,0,41.61686673478844
Francisco Pizarro,Nariño,52520,2.12131332554,-78.59781400508,NaN,NaN,100,100,9,18.424781572164587,4.2105263157894735,18.424781462328983,NaN,NaN,30,50,77.1794347069056,0,0,0,35.34679478135088
Fredonia,Antioquia,5282,5.900460017165,-75.68952486873333,NaN,NaN,87.5,78.4224396259747,22.916666666666664,27.12814653129289,2.272727272727273,27.12814354228727,NaN,NaN,12.5,100,84.50462866712513,4.166666666666666,0,0,38.12829776640485
Fresno,Tolima,73283,5.190927642396667,-75.06924883153333,NaN,NaN,96.81818181818181,96.83887373148886,53.982402878506775,58.224948681807476,14.031801531801532,47.781183094003715,NaN,NaN,14.753246753246753,94.88636363636364,94.62504886180366,7.532467532467533,4.9411919530346555,2.4528216047584457,48.03442783431522
Frontino,Antioquia,5284,6.74221945998,-76.228717388175,NaN,NaN,94.73684210526315,98.79379636347576,54.29362880886426,61.91736074179297,3.508771929824561,23.83472127914867,NaN,NaN,15.789473684210527,63.1578947368421,81.09001052529324,15.789473684210526,3.991926652659867,1.9816036355846691,45.10658584291288
Fuente de Oro,Meta,50287,3.36923966318,-73.55576359292222,NaN,NaN,100,100,26.901669758812616,41.77541449614009,17.142857142857142,41.775413514864304,NaN,NaN,37.01298701298701,100,96.63708645149936,4.545454545454546,2.0256036298817044,1.0055153479717747,47.913326216873116
Fundación,Magdalena,47288,10.4395044309125,-74.0291302806375,26,96.88622754491017,50.98039215686275,58.99365031750035,41.1764705882353,50.312579448647725,6.25,25.468869067456097,15,81.0126582278481,23.529411764705884,82.35294117647058,73.41515532264063,0,0,0,38.20879156880487
Funes,Nariño,52287,0.9704142035009999,-77.4532182768,NaN,NaN,83.33333333333333,85.21841001463659,12.92361111111111,22.490116133858002,3.6904761904761907,22.49011428405457,NaN,NaN,16.25,100,81.28253429995408,0,0,0,36.83531646212448
Funza,Cundinamarca,25286,4.7409332561460005,-74.22221224516,74,91.1377245508982,41.666666666666664,44.8559670781893,64.04950869236583,78.23094597765959,1.5873015873015872,56.46189106257393,16,79.74683544303798,3.1746031746031753,100,96.53542684133262,18.452380952380953,2.2727272727272725,1.1281882204243314,40.33418263331277
Fúquene,Cundinamarca,25288,5.412996408756666,-73.77421275323333,NaN,NaN,87.5,95.58940820905084,56.25,66.78295149371439,0,33.56590265898829,NaN,NaN,0,100,91.25050230797419,0,0,0,43.34069189606839
Fusagasugá,Cundinamarca,25290,4.33161325389,-74.42574633175714,33.44444444444444,95.99467731204258,51.515151515151516,50.75827357751779,56.07005785644727,63.76177880133047,0.1129305477131564,43.05422279163639,10.972222222222221,86.11111111111111,0.7905138339920952,100,96.23742192368363,31.25,8.073384289034594,4.007650703692986,42.795632854568886
Gachala,Cundinamarca,25293,4.7069850731525005,-73.489415661725,NaN,NaN,68.22660098522167,49.47648914789526,11.74015384988716,28.599061507058998,3.2430213464696225,28.59906129010058,NaN,NaN,19.211822660098527,74.13793103448276,80.92305474054108,14.039408866995073,3.5098524061133936,1.742300621602256,32.25906337876053
Gachancipá,Cundinamarca,25295,4.98306442184,-73.8829352591,NaN,NaN,89.28571428571428,88.12861322035889,4.33673469387755,9.720687355751732,0.7936507936507936,9.720687122021273,NaN,NaN,10.714285714285708,100,55.97501376471371,7.142857142857142,1.0059525,0.4993576547548192,33.41844246599678
Gachantivá,Boyacá,15293,5.75189108211,-73.5490923938,37,95.5688622754491,88.88888888888889,80.90751253389516,50,51.664059922206306,10,27.49608635882402,1,98.73417721518987,16.666666666666668,100,96.19593843272663,8.333333333333332,5.514100190506856,2.7372148677145343,49.83528043458863
Gachetá,Cundinamarca,25297,4.83246893694,-73.605326227,NaN,NaN,80,90.51071028484188,21.846153846153847,24.306641662397503,10,24.30664045349752,NaN,NaN,20,100,97.6677445379056,10,7.831897784699487,3.887776122676766,42.368265839879555
Galán,Santander,68296,6.63841500205,-73.2877647263,NaN,NaN,100,100,75,75.10140491215046,0,50.20280303735819,NaN,NaN,0,100,100,0,0,0,47.736491355650045
Galapa,Atlántico,8296,10.8973947898,-74.898289569,NaN,NaN,100,100,60,65.40466932585167,0,30.809338611775257,NaN,NaN,0,100,97.11463478553853,0,0,0,45.36018061078372
Galeras,Sucre,70235,9.123120030666666,-74.9482312048,NaN,NaN,90.74074074074073,95.0140999658133,78.18930041152264,80.47528995068463,45.37037037037037,60.95057876640636,NaN,NaN,18.518518518518523,100,96.03949626154619,0,0,0,50.7857166275671
Gama,Cundinamarca,25299,4.73977964971,-73.58416736999999,NaN,NaN,95,99.42869220049272,34.77777777777778,43.761533058157426,18.888888888888886,43.76153133037436,NaN,NaN,26.66666666666667,100,95.96716744707302,0,0,0,46.771884185368776
Gamarra,Cesar,20295,8.310554493851429,-73.74367546465714,NaN,NaN,92.85714285714286,96.95893453221629,11.688311688311689,19.642718774885342,0,19.642717783060935,NaN,NaN,0,100,78.53939541024268,0,0,0,36.33513666025444
Gambita,Santander,68298,5.906702198,-73.3645214438,NaN,NaN,100,100,21.875,28.92745238771766,10.714285714285714,28.92745202329238,NaN,NaN,25,100,100,12.5,1.0087761423391841,0.5007593187661532,45.50238850573716
Gameza,Boyacá,15296,5.80233780495,-72.805529354,NaN,NaN,66.66666666666667,66.66666666666667,66.66666666666667,76.53189830206088,0,64.79784390547341,NaN,NaN,0,100,100,0,0,0,41.8059301486722
Garagoa,Boyacá,15299,5.08324346272,-73.3644275636,50,94.01197604790418,66.07142857142857,66.84156013308701,60.11904761904762,65.18646748372414,0,30.37293187230938,8,89.87341772151899,0,100,75.58037432998022,4.761904761904762,0.5357142857142857,0.2659300805285924,41.380007152075294
Garzón,Huila,41298,2.1649076879523528,-75.60225522361765,18,97.8443113772455,78.18181818181819,79.32544978749685,71.55903914491172,76.18051201766704,8.127921154236942,34.49640701273182,4,94.9367088607595,9.944178628389155,94.07894736842105,88.78370604792975,13.166666666666666,4.090909090909092,2.030738796763797,46.24805828507401
Génova,Quindío,63302,4.20747788779,-75.7898166081,NaN,NaN,75,50.77720207253886,18.75,20.921367016564204,7.142857142857142,20.921364967894903,NaN,NaN,25,100,81.34715025906736,12.5,4.166666666666666,2.0683450707779407,36.15214438440656
Gigante,Huila,41306,2.365318666784,-75.5108895444,NaN,NaN,99.0909090909091,99.33329428215708,50.51927812447293,55.2643251393669,7.334570191713049,36.091891199685584,NaN,NaN,9.766233766233766,100,95.92690525002126,2,1.274108994170807,0.632471293854487,45.92396850003446
Ginebra,Valle del Cauca,76306,3.727190410746,-76.26368413072,NaN,NaN,100,100,16.213017751479292,18.76295400254615,2.564102564102564,18.762952232410555,NaN,NaN,15.384615384615387,80.76923076923077,89.19024671769476,0,0,0,38.444015199060814
Giraldo,Antioquia,5306,6.687579675665001,-75.95055192255,NaN,NaN,87.5,89.97074784740072,12.5,14.591631333849056,0,14.591630620030664,NaN,NaN,0,100,66.86167934578653,0,0,0,33.76582350245785
Girardot,Cundinamarca,25307,4.344260775622,-74.80421069558,NaN,NaN,91.37254901960785,92.5428561249392,22.405228758169933,52.3640075783268,3.3333333333333335,52.364006777553236,NaN,NaN,6.666666666666667,100,93.8781067391499,8.627450980392156,5.280423716153128,2.6212172075818225,43.553803647665525
Girardota,Antioquia,5308,6.384023219845833,-75.44533034504167,NaN,NaN,100,100,43.1440329218107,50.090873381722275,6.507936507936508,25.13630913262121,NaN,NaN,19.259259259259256,94.44444444444444,88.18114058981851,4.444444444444445,4.0116939783313725,1.9914161917322983,45.36643041261515
Girón,Santander,68307,7.0833135862750005,-73.189138691,27,96.76646706586827,75,76.8921141962977,63.55386725757096,72.30685078197978,20.86894586894587,54.99863168393277,6,92.40506329113924,10.541310541310542,100,94.25496278013142,2.0833333333333335,1.7871207976479089,0.8871317982479507,45.169472039866406
Gómez Plata,Antioquia,5310,6.7416212113,-75.1973074008,NaN,NaN,97.91666666666666,99.36239957618858,52.25694444444444,60.261857279874484,0.36231884057971014,20.523714378641436,NaN,NaN,2.0833333333333286,100,60.86346029541008,8.333333333333332,2.3848897970518252,1.1838660134593793,43.581470910213355
González,Cesar,20310,8.413416854346,-73.37103803693999,NaN,NaN,97.36842105263158,94.73127465705835,6.268159433671898,8.049411323433254,2.8828426999702645,8.049410793000924,NaN,NaN,37.06140350877193,70.83333333333334,50.969468431146666,0,0,0,33.46948313091066
Gramalote,Norte de Santander,54313,7.8975895080475,-72.79518694565,NaN,NaN,100,100,14.285714285714285,31.6127809699204,0,31.612779426392557,NaN,NaN,0,100,95.9373255730233,14.285714285714285,0.3004120714833028,0.14912539854112314,41.50646114403607
Granada,Antioquia,5313,6.1182185996100005,-75.1237760874,NaN,NaN,97.31182795698925,97.46482088258176,50.93074343854781,56.043637930348595,0.7947639083683964,12.087275833670166,NaN,NaN,16.66666666666667,63.44086021505376,62.58368596321049,2.6881720430107525,0.9652912721277964,0.479173306696919,41.90545350366236
Granada,Cundinamarca,25312,4.512080953176667,-74.35853145726666,NaN,NaN,97.31182795698925,97.46482088258176,50.93074343854781,56.043637930348595,50.3973819541842,56.04363791683508,NaN,NaN,41.66666666666667,81.72043010752688,81.29184298160524,2.6881720430107525,0.9652912721277964,0.479173306696919,50.99636259457145
Granada,Meta,50313,3.4770466779757143,-73.76348894935714,NaN,NaN,98.9247311827957,98.9859283530327,50.88269435084445,63.9102355425621,0.3937457794400291,39.85039213783339,NaN,NaN,7.971014492753625,87.81362007168458,82.89001686457449,5.4230949041608225,1.8164883743719593,0.9017099460618426,44.67948425236388
Guacamayas,Boyacá,15317,6.4596665157,-72.5008119968,NaN,NaN,84.21052631578947,84.82050202294671,31.517389966143426,33.33777532661797,17.83625730994152,33.3377728367441,NaN,NaN,24.56140350877194,100,78.76885898621107,0,0,0,41.36842849422019
Guacarí,Valle del Cauca,76318,3.7780688125733333,-76.30045690446667,NaN,NaN,93.93939393939394,96.25693204730847,53.03030303030303,67.92777457152789,0,51.89166121158736,NaN,NaN,0,100,95.19653623315386,3.0303030303030307,0,0,44.937793706752025
Guachené,Cauca,19300,3.156045404642857,-76.39955831981905,NaN,NaN,78.78787878787878,63.21496852962048,22.865013774104682,34.787084664933175,1.8181818181818181,34.78708382452944,NaN,NaN,9.090909090909086,100,86.11163597167189,0,0,0,36.061424785209084
Guachetá,Cundinamarca,25317,5.3837411918999996,-73.6870982163,NaN,NaN,100,100,24.999999999999996,52.92386919805849,0,52.92386840901691,NaN,NaN,0,100,99.08967767307048,25,0,0,45.637595170102635
Guachucal,Nariño,52317,0.983954098665125,-77.715396203325,NaN,NaN,90.1360544217687,96.83058719088811,58.6239786920059,65.87147374326612,7.05891330891331,40.27507854853474,NaN,NaN,11.451247165532878,100,97.31363268669497,0,0,0,45.81666977242422
Guadalajara de Buga,Valle del Cauca,76111,3.889197470076316,-76.26604867571052,5.666666666666667,99.32135728542914,66.66666666666667,66.66666666666667,55.29257067718606,60.304480332704934,13.461538461538462,40.456719537301986,1.3333333333333333,98.31223628691983,23.076923076923077,100,100,0,0,0,44.24757421705642
Guadalupe,Antioquia,5315,6.825928065588,-75.21470712478,NaN,NaN,87.5,90.19022184024766,5.5555555555555545,20.50674094198733,1.4492753623188406,20.506740789422153,NaN,NaN,16.666666666666657,33.33333333333333,80.58935152240502,0,0,0,30.526467747501307
Guadalupe,Huila,41319,2.01486400392,-75.71616307114999,NaN,NaN,93.75,95.09511092012383,52.77777777777778,60.253370470993666,1.4492753623188406,20.506740789422153,NaN,NaN,8.333333333333329,33.33333333333333,80.58935152240502,50,16.4324,8.157089649852347,49.58692007998219
