municipio_entidad,departamento_entidad,codigo_municipio_ent,oferentes_prom,ind_prom_oferentes,perc_contr_cerrada_num,perc_contr_cerrada_val,HHI_cant,HHI_val,ID_cant,ID_val,ofertas_prom,ind_prom_ofertas,ganadoras,IC4K_cant,IC4K_val,perc_tiempo_adiciones,perc_valor_adiciones,ind_valor_adiciones,ind_riesgo_corrupcion,latitud,longitud
Abejorral,Antioquia,5002,NA,NA,77.77777777777779,92.25515307820878,11.11111111111111,65.43924769765287,0,65.43924759371878,NA,NA,0,44.44444444444444,92.03789492923808,22.22222222222222,2.5916079365079363,1.2864814802076436,37.19690369794281,5.76628884775,-75.4656890275
Abrego,Norte de Santander,54003,NA,NA,96.875,97.56060933931607,7.66625,16.645074236660843,2.6666666666666665,16.64507384671357,NA,NA,20.25,40.75,70.93707890743514,3.125,0.48615820996574827,0.24133030492821186,32.47301524227024,7.961907205999999,-73.16759074000001
Abriaquí,Antioquia,5004,NA,NA,76.92307692307693,75.75820415268728,10.059171597633137,12.882389257071786,2.564102564102564,12.882388642176865,NA,NA,15.384615384615385,46.15384615384615,63.19457962888747,0,0,0,27.538180514720064,6.653143085,-76.077048185
Acacias,Meta,50006,32.833333333333336,96.06786427145708,77.63347763347764,77.69763108049345,48.7778995895879,55.52273254093834,18.775632262474367,49.96307239807811,9,88.60759493670886,14.754689754689755,84.63203463203463,95.69170990034513,12.987012987012987,3.3932135728542914,1.6844007762023951,45.396275573054076,3.9882049999999998,-73.765802
Acandí,Chocó,27006,17,97.96407185628743,25,47.047864798443264,58.33333333333333,68.60631129649694,0,37.21262243179562,6,92.40506329113924,0,66.66666666666666,96.41919682513222,0,0,0,38.09903246341822,8.48795685925,-77.2618324375
Acevedo,Huila,41006,NA,NA,97.5,98.03264963406492,69.11574074074073,75.49015275118106,43.27838827838828,68.48733798088499,NA,NA,27.962962962962965,90.71428571428571,95.97766909609217,7.685185185185184,13.031091865627104,6.468670710509842,55.22596450781626,1.7814513262,-75.939344218
Achí,Bolívar,13006,NA,NA,96.29629629629629,88.2215414677232,46.91358024691358,53.71507025213744,7.5,30.572603343717518,NA,NA,16.666666666666668,80.55555555555554,94.42761088231083,0,0,0,43.04259992924074,8.578533003666667,-74.51769117611111
Agrado,Huila,41013,NA,NA,100,100,72.03611111111111,79.03469185796638,45.17094017094017,65.057819397028,NA,NA,28.166666666666668,76.66666666666667,84.14923485017982,3.5,2.6844423020201438,1.3325647207610767,51.84968924283613,2.224062597,-75.72583564666667
Agua de Dios,Cundinamarca,25001,NA,NA,77.77777777777777,77.77777777777777,53.935641756154574,66.17195915921555,9.273504273504273,49.25793805610297,NA,NA,13.532763532763532,89.31623931623932,97.14358718717607,12.606837606837608,6.181508317455543,3.068518142011684,43.260322918224695,4.375312017,-74.66921778
Aguachica,Cesar,20011,23.5,97.18562874251498,74.07407407407408,73.84629191587018,67.66666666666667,71.8019240337883,1.0526315789473684,36.55432375300539,5.5,93.0379746835443,2.7777777777777777,86.25,94.75152453321903,6.19047619047619,2.9033703434864817,1.4412412172623494,44.70739385382075,8.191252773636364,-73.6603323290909
Aguada,Santander,68013,NA,NA,100,100,28,37.53220620115721,10,37.53220538656756,NA,NA,19.999999999999996,100,100,0,0,0,45.04838238192338,6.162237533,-73.52323684
Aguadas,Caldas,17013,NA,NA,96.59863945578232,93.3491327918454,24.70776065528252,39.10440175391536,0.7086167800453514,39.10439906641383,NA,NA,10.884353741496598,68.84353741496598,85.81001256959729,5.442176870748299,2.426303692905734,1.2044239880236536,39.007214519509866,5.6289186243,-75.489252792
Aguazul,Casanare,85010,NA,NA,96.875,91.96477873880873,24.75,31.611350008798365,4.038231780167264,31.611346290380443,NA,NA,20.416666666666668,69.16666666666667,81.40458065230335,4.375,0.8520634920634921,0.4229667177118472,38.716118611198766,5.1469359012,-72.599790239
Agustín Codazzi,Cesar,20013,NA,NA,97.22222222222221,99.86614087537494,69.9074074074074,80.5509568524995,1.5151515151515151,41.652870537642336,NA,NA,2.777777777777779,41.666666666666664,90.78174790956834,0,0,0,44.998093378704,9.9417785664,-73.2433854
Aipe,Huila,41016,NA,NA,98.48484848484848,99.42756462307206,13.689929599020509,21.764364781452034,0.1443001443001443,21.764362792644665,NA,NA,1.5151515151515138,55.72390572390572,76.90644932412214,0,0.5411255411255412,0.26861624295817416,33.49693236181421,3.2544124081666665,-75.38393217333333
Albán,Cundinamarca,25019,NA,NA,40,21.164184136256907,10.222222222222223,44.47757001182297,3.8095238095238098,44.47756989658151,NA,NA,19.999999999999996,46.666666666666664,91.28233724362083,0,0,0,25.238409462737582,4.9009268952500005,-74.4462309875
Albán,Nariño,52019,NA,NA,95.83333333333333,98.97488410649237,70.05208333333333,74.32755256182267,4.166666666666666,22.982657525430778,NA,NA,8.333333333333334,50,81.66417452681205,0,0,0,44.79983033934618,1.4833111205,-77.0756764125
Albania,Caquetá,18029,NA,NA,100,100,50,82.37118586116462,0,82.37118543063909,NA,NA,0,100,100,0,11.67076167076167,5.793398969746567,49.985031500152076,1.2071806084999999,-75.89646709750001
Albania,La Guajira,44035,NA,NA,80,82.04326801870114,70.07407407407408,79.96316050363133,51.904761904761905,69.94474074961366,NA,NA,28.88888888888889,73.33333333333333,98.62679174396219,2.2222222222222223,1.1058451816745654,0.5489446633344298,49.462696503687724,11.198297456666666,-72.51536388
Albania,Santander,68020,NA,NA,100,100,75,75.9275227326798,0,51.855044238356164,NA,NA,0,100,100,0,0,0,47.81159297569816,5.796024487,-73.8211791075
Alcalá,Valle del Cauca,76020,NA,NA,97.70114942528735,96.16576988559834,5.43004359889021,25.854930599186446,4.330392943063352,25.854930415024903,NA,NA,67.81609195402298,32.18390804597701,67.16346299148472,14.942528735632186,11.623886289538984,5.7701298984603,38.9983903970129,4.674216170333334,-75.76285316333333
Aldana,Nariño,52022,NA,NA,92.98245614035088,97.89528858436275,22.122191443521082,30.578359078904093,0.9746588693957113,30.5783550318721,NA,NA,7.017543859649122,80.7017543859649,93.53647151344256,5.263157894736842,1.8745952025477697,0.9305543392544773,39.44336648292093,0.8715145950000001,-77.68937452
Alejandría,Antioquia,5021,NA,NA,90.9090909090909,85.90138011897207,55.37190082644628,57.658632752449314,1.8181818181818181,15.317265049433901,NA,NA,4.545454545454547,45.45454545454546,65.039854565795,4.545454545454546,1.4887266176875609,0.7390080867431958,39.301449029232685,6.376065676,-75.1413329
Algarrobo,Magdalena,47030,NA,NA,90.9090909090909,93.51155463438656,59.50413223140496,63.97724085278468,10.909090909090908,27.954481483650405,NA,NA,22.72727272727273,81.81818181818181,93.87651959834943,0,0,0,45.3573806834319,10.267873758333334,-74.05636350666667
Algeciras,Huila,41020,NA,NA,100,100,51.247123602892835,65.91535077864462,2.671837965955613,48.87302446036895,NA,NA,12.5,77.40384615384616,93.62378706247705,8.653846153846153,4.486986641640167,2.2273528086918977,46.43911885823347,2.5211271496,-75.308176706
Almaguer,Cauca,19022,NA,NA,83.33333333333334,88.05552553220579,11.111111111111109,26.887461139413258,3.0303030303030303,26.887460886256125,NA,NA,16.666666666666664,50,82.26126913953922,0,0,0,32.84960635932477,1.9027266953333333,-76.85635682833333
Almeida,Boyacá,15022,NA,NA,50,50,100,100,NA,NA,NA,NA,0,NA,NA,50,12.06431032851043,5.988757632074388,46.0066334950731,4.970856509,-73.3789331
Alpujarra,Tolima,73024,NA,NA,83.33333333333334,90.32913011586517,16.666666666666664,44.512147512141745,0,44.51214722457399,NA,NA,0,66.66666666666666,95.36163096042407,16.666666666666664,8.333333333333332,4.136690141555881,38.727842308786684,3.45368090925,-74.887006645
Altamira,Huila,41026,NA,NA,69.23076923076923,94.00669420837512,20.710059171597635,23.882592311238685,14.102564102564102,23.88259187191978,NA,NA,38.46153846153846,69.23076923076923,86.79254586177771,0,0,0,37.85613932533001,2.08279618,-75.75992428333333
Altos del Rosario,Bolívar,13030,NA,NA,100,100,27.777777777777775,31.79416874157554,13.333333333333334,31.79416849957401,NA,NA,33.333333333333336,100,100,0,0,0,46.02169210782,8.765764253166667,-74.21750319
Alvarado,Tolima,73026,NA,NA,100,100,4.056246619794484,17.822680571623188,1.7718715393133997,17.822680046642546,NA,NA,27.906976744186053,27.906976744186046,64.26718795916541,0,0,0,31.248358198024416,4.606006048166667,-74.97344823166667
Amagá,Antioquia,5030,NA,NA,86.11111111111111,95.1348730813459,20.790123456790123,24.985676436786363,9.248366013071895,24.985675654437962,NA,NA,29.444444444444443,80.55555555555556,92.39498955783563,8.333333333333332,10.347288407025575,5.13642311342138,42.04383495552012,6.051665558555555,-75.70087402666667
Amalfi,Antioquia,5031,NA,NA,95.23809523809524,96.0726663053892,40.35968841163646,43.43463151306606,35.94516594516595,43.434630854040584,NA,NA,42.02741702741703,67.24386724386724,76.46388780419367,3.1746031746031744,1.32283017047847,0.656656623020517,45.63086449608482,6.8569913275,-75.004487005
Ambalema,Tolima,73030,NA,NA,99.42028985507247,98.65410129957037,47.082545683679896,55.47341058319274,0.159846547314578,44.34176098785038,NA,NA,4.057971014492754,78.26086956521739,85.66466612960834,10,5,2.482014084933529,43.948967119514,4.8139412334000005,-74.806099552
Anapoima,Cundinamarca,25035,NA,NA,75,95.35508018889391,16.40625,68.8570925588407,10.833333333333334,68.8570925211211,NA,NA,43.75,68.75,91.6582279402274,6.25,0,0,43.350907638299574,4.55151565975,-74.50656378
Ancuyá,Nariño,52036,NA,NA,99.35064935064935,99.25684659523415,79.87012987012987,82.79140314636246,51.19047619047619,69.8849549445742,NA,NA,19.48051948051948,86.36363636363636,90.26397745565365,0,0,0,52.29245713167964,1.2377586025,-77.52823347
Andalucía,Valle del Cauca,76036,NA,NA,93.75,99.17201730649073,11.458333333333332,24.047503921335725,1.0869565217391304,24.047503117178355,NA,NA,10.416666666666668,52.08333333333333,83.45271050060063,0,0,0,34.133411053045414,4.17300466575,-76.20023532
Andes,Antioquia,5034,NA,NA,99.69969969969969,99.66098677383195,16.00309017726435,38.59059067047494,0.9914459914459914,38.590590013491656,NA,NA,6.406406406406407,54.85485485485486,81.36245865609196,1.2012012012012012,0.19491910021139572,0.09675839042945085,36.2784010838102,5.65544762875,-75.89311107125
Angelópolis,Antioquia,5036,NA,NA,66.66666666666666,90.78731250543893,8.333333333333332,23.237208370048553,0,23.237208105300464,NA,NA,0,33.33333333333333,76.84288176926847,25,6.016307101641993,2.986511793112209,30.29123226116759,6.10315127075,-75.71833477999999
Angostura,Antioquia,5038,NA,NA,93.33333333333333,90.79432267390996,46.77777777777778,48.55184911626755,1.0526315789473684,22.827768291337808,NA,NA,5.000000000000001,67.5,69.51580573263861,0,0.3819738971868789,0.18961291857895704,38.82495405376774,6.849074779,-75.41128747
Anolaima,Cundinamarca,25040,NA,NA,88.46153846153847,93.21633560384208,31.213017751479292,45.30715284494178,2.564102564102564,45.307150922892944,NA,NA,11.538461538461537,76.92307692307693,89.5806774294532,0,0,0,39.89130573789963,4.7904888612,-74.476930118
Anorí,Antioquia,5040,NA,NA,40,75.10410655123135,36,36.648673333213964,20,36.64867228545305,NA,NA,40,100,100,0,0,0,40.70479817131321,7.136182879000001,-75.09685102666667
Anserma,Caldas,17042,7,99.16167664670658,86,88.59776780755845,60.266666666666666,68.85105335179966,1.1111111111111112,48.085085182970836,1,98.73417721518987,1.9999999999999996,90,97.54196138765002,17.77777777777778,3.671373739833686,1.822480266664459,47.07117280034447,5.231950980666666,-75.78653590666666
Ansermanuevo,Valle del Cauca,76041,NA,NA,83.33333333333334,81.01023906022064,7.291666666666665,15.6365240571056,3.260869565217391,15.636523826006037,NA,NA,29.166666666666664,41.666666666666664,70.79559913426222,33.33333333333333,16.95154667414839,8.414795521328886,35.53284006172271,4.805984971833333,-76.00601059499999
Anza,Antioquia,5044,NA,NA,100,100,18.444444444444443,19.903160241556726,0.11494252873563218,19.903159235662795,NA,NA,1.6666666666666663,58.33333333333333,63.46398655975258,5,1.6666666666666667,0.8273380283111765,33.58368531540611,6.32475385225,-75.893243505
Anzoátegui,Tolima,73043,NA,NA,92.85714285714286,91.5303433970393,32.14285714285714,33.69402616158011,0,33.69402470127196,NA,NA,0,78.57142857142857,88.49726778935707,7.142857142857142,0,0,38.58508391475111,4.62324568775,-75.1000237675
Apartadó,Antioquia,5045,14,98.32335329341318,74.13793103448276,74.84341688107652,51.15933412604043,63.87856518127173,0.41050903119868637,51.83808627909173,1,98.73417721518987,3.448275862068967,75.86206896551724,91.67845286860381,8.045977011494253,2.7699766558330428,1.3750242149429375,43.17576492594546,7.856634913333333,-76.65842655583333
Apía,Risaralda,66045,NA,NA,100,100,5.536332179930796,6.203653301354662,2.6737967914438503,6.203652613515258,NA,NA,29.411764705882348,35.294117647058826,35.22308288851381,0,0,0,28.57661341038039,5.123637611333334,-75.95100993
Apulo,Cundinamarca,25599,NA,NA,61.111111111111114,59.93154643721075,74.07407407407408,73.65671309224206,6.666666666666667,20.97013862496013,NA,NA,5.5555555555555545,83.33333333333333,85.48987072280349,33.333333333333336,16.666666666666668,8.273380283111765,44.35922924852182,4.520347219,-74.59380454
Aquitania,Boyacá,15047,NA,NA,96.29629629629629,98.85874874453474,72.01646090534979,75.0812012694251,5.555555555555555,25.243603204226616,NA,NA,7.407407407407407,66.66666666666666,83.64788310174056,0,0.8230452674897119,0.40856198928946985,45.71349305949516,5.440381887833333,-72.90189281
Aracataca,Magdalena,47053,NA,NA,100,100,31.25,61.766105515445446,0,61.76610514183554,NA,NA,0,75,96.5596587738296,0,0,0,42.23416038993409,10.58647413,-74.15607279142857
Aranzazu,Caldas,17050,NA,NA,95.22727272727272,83.44403513492881,55.239669421487605,64.94293473427989,3.54978354978355,29.8858690013234,NA,NA,6.136363636363635,41.36363636363637,72.68704421896078,8.181818181818182,0.5333620939035884,0.2647624458876692,40.70640458564841,5.2623138953333335,-75.50927895
Aratoca,Santander,68051,NA,NA,85.71428571428572,82.4061544056468,27.933673469387756,28.93539063461325,10.714285714285714,28.935388830376414,NA,NA,19.642857142857146,85.71428571428571,91.19925076117349,14.285714285714285,2.380952380952381,1.1819114690159662,40.918978335656206,6.693988,-73.018938
Arauca,Arauca,81001,82.4047619047619,90.13116623895067,53.43861088323763,52.8362903785348,59.13497873958814,67.65675949700923,15.896265448264016,50.40703083391915,5.369047619047619,93.20373719107896,10.422477440525022,84.18688230008985,91.92167849449145,0.05241090146750524,0.014296085739694757,0.007096617233067951,45.83889882344974,7.033128520166667,-70.68683860666667
Arauquita,Arauca,81065,NA,NA,96.80851063829788,95.60097082192527,45.59778180172024,47.43086324897728,4.10422448350293,29.90781668904173,NA,NA,14.042553191489361,76.59574468085107,87.0466648249813,0.5319148936170213,0,0,42.12023364436623,6.8643422532592595,-71.38625023148148
Arbeláez,Cundinamarca,25053,NA,NA,93.33333333333333,90.91836498216394,12,35.266985779459134,5.714285714285714,35.266985446973706,NA,NA,33.333333333333336,60,92.77500030663457,0,0,0,38.485573040837274,4.253411172,-74.43057350000001
Arboleda,Nariño,52051,NA,NA,89.28571428571428,96.70873065059973,33.75850340136054,36.118896549914055,1.1904761904761905,36.1188948816839,NA,NA,3.5714285714285725,92.85714285714286,96.70873065059973,0,0,0,40.92723846883963,1.4720819258,-77.109828136
Arboledas,Norte de Santander,54051,NA,NA,50,31.613344807486506,15.625,18.710072991637865,3.571428571428571,18.71007189378819,NA,NA,12.5,62.5,76.28999139438511,0,0,0,24.619076160448913,7.6487323756666665,-72.79693039
Arboletes,Antioquia,5051,NA,NA,79.41176470588235,90.53454958077964,25.287197231833908,35.05459909349948,15.367647058823529,35.054598446378,NA,NA,22.941176470588236,64.70588235294117,87.25987471614502,0,1.1786741965157366,0.5850971914599538,38.393314781679,8.619195552111112,-76.40951294222222
Arcabuco,Boyacá,15051,NA,NA,88.88888888888889,76.59283961341764,27.546296296296294,36.859571074216746,13.49206349206349,36.85956946327403,NA,NA,19.444444444444446,69.44444444444444,92.0642313168608,0,1.3884221923536437,0.6892166874512067,38.76458349549433,5.755184269,-73.43818476
Arenal,Bolívar,13042,NA,NA,100,100,31.198347107438018,35.13380076548585,1.8181818181818181,35.133796732226514,NA,NA,9.090909090909088,77.27272727272727,88.37965774370076,0,0,0,40.26305670894935,8.4376697012,-73.953581604
Argelia,Antioquia,5055,NA,NA,100,100,58.59375,63.98995043054638,11.666666666666666,27.97990071276634,NA,NA,25,68.75,87.24230665633243,6.25,0,0,46.605744281095085,5.730671879,-75.14174146
Argelia,Cauca,19050,NA,NA,80,90.82150909586852,18,47.499664428845634,8.88888888888889,47.49966426123735,NA,NA,30.000000000000004,70,90.90132206025228,0,0,0,39.646489497623215,2.350914294625,-77.2445591175
Argelia,Valle del Cauca,76054,NA,NA,77.77777777777779,91.1029542790354,13.580246913580247,53.15913458286227,2.7777777777777777,53.15913442453982,NA,NA,11.111111111111116,55.55555555555556,89.41689051762629,0,0,0,35.86194986502968,4.728663261,-76.14059369
Ariguaní,Magdalena,47058,NA,NA,57.89473684210527,90.78366344823776,7.479224376731301,18.65906543244651,2.3391812865497075,18.659065377437237,NA,NA,21.052631578947366,42.10526315789473,79.59190049978544,15.789473684210526,6.015703537778686,2.986212182310232,31.33609600245432,9.882166226999999,-74.0856489
Arjona,Bolívar,13052,NA,NA,100,100,68,99.91140485500338,20,99.8228097100037,NA,NA,20,100,100,0,0,0,52.08285498681849,10.19548579125,-75.35425353625
Armenia,Antioquia,5059,NA,NA,50,50,77.77777777777777,97.5382094235328,33.33333333333333,95.07641881298294,NA,NA,16.666666666666668,100,100,0,0,0,40.559029139513086,6.150145846,-75.79945318
Armenia,Quindío,63001,66.12592592592593,92.08072743402084,74.28571428571429,74.28571428571429,58.05694849368319,66.27942789824804,12.479474548440065,50.82416420620397,8.144444444444444,89.69057665260198,8.136054421768707,87.28835978835978,94.76476268017406,9.584859584859585,2.6919100299581786,1.3362717219460076,45.755453452081824,4.484716031272727,-75.73460831545455
Armero,Tolima,73055,14,98.32335329341318,63.768115942028984,63.82912885006241,52.33144297416509,57.21667593963003,1.383399209486166,35.82500892253324,5,93.67088607594937,7.246376811594202,69.56521739130434,88.88983658390069,0,0,0,40.36230903824717,5.0602720965,-74.88057086
Arroyohondo,Bolívar,13062,NA,NA,100,100,60,67.64767076795431,0,35.29534136149676,NA,NA,0,80,96.22629020590607,0,0,0,44.61461962462794,10.234914693333334,-75.026486535
Astrea,Cesar,20032,NA,NA,97.70114942528735,99.10947507890026,37.46187849561809,43.347557624706944,2.4853644606268293,15.021336126448979,NA,NA,18.486590038314176,32.54310344827586,61.59814408196361,1.1494252873563218,0.5747126436781609,0.28528897527971603,37.50307444512593,9.522293876333332,-73.92441464333334
Ataco,Tolima,73067,NA,NA,62.5,80.97958117217193,62.5,71.66553243144826,0,43.33106451178053,NA,NA,0,100,100,0,0,0,41.14955578214729,3.382134117090909,-75.58172166
Ayapel,Córdoba,23068,NA,NA,100,100,28,43.25102839823836,10,43.25102837809371,NA,NA,19.999999999999996,100,100,0,0,0,45.56827530893076,8.317555279,-75.07920149545454
Bahía Solano,Chocó,27075,NA,NA,100,100,20,32.61699048287356,0,32.61699030437552,NA,NA,0,80,94.70198675496688,0,0,0,38.84717974889458,6.327806019875,-77.406647355
Bajo Baudó,Chocó,27077,NA,NA,100,100,14.285714285714285,28.10606109524479,0,28.106061052887288,NA,NA,0,57.14285714285714,91.28922671916719,0,0,0,35.52944174936213,4.929590105470588,-77.29634586823529
Balboa,Cauca,19075,NA,NA,100,100,13.28125,17.214365697544302,7.5,17.2143653732426,NA,NA,37.5,62.5,69.31615372612573,0,0,0,37.02834267487909,2.0740727122222222,-77.19246258111112
Balboa,Risaralda,66075,NA,NA,100,100,23.75,34.487957692314566,8.333333333333332,34.487953264090756,NA,NA,12.5,70,89.41516710533195,0,0,0,39.862405284634534,4.9273906245,-75.966653475
Baranoa,Atlántico,8078,165.6888888888889,80.15701929474385,51.111111111111114,57.59854911883224,41.22222222222222,57.0771952751289,20,57.077195058855736,3.6777777777777776,95.34458509142054,13.333333333333334,84.88888888888889,94.8990627226475,0,0,0,45.034163038855596,10.794258585,-74.931008565
Baraya,Huila,41078,NA,NA,100,100,20.17283950617284,31.220294622601187,7.592592592592593,31.220292352576184,NA,NA,20.740740740740737,75.55555555555556,84.81921917746874,14.074074074074074,4.678334180354696,2.3223382659332628,41.9250898832267,3.141348603,-74.99007539
Barbacoas,Nariño,52079,NA,NA,97.86535303776682,98.58113644558793,48.08223392408886,54.381410126062036,0.781914690495284,36.133973194350325,NA,NA,8.144499178981938,72.59770114942529,84.56347786283558,1.477832512315271,0.8900330049553924,0.44181489087099957,42.321631952703704,1.605859074,-78.08697723857142
Barbosa,Antioquia,5079,NA,NA,92.5,96.789854013848,52.5,57.81098613006196,0,15.621972155252429,NA,NA,0,20,61.138139171379265,7.5,9.292383502661366,4.612765347241895,39.68864168904571,6.4264430937692305,-75.37259093692307
Barbosa,Santander,68077,NA,NA,100,100,23.474747474747474,34.96369045175864,3.3333333333333335,34.96368928527867,NA,NA,6.666666666666665,78.78787878787878,92.95861395721715,0,0,0,40.01681187923655,5.9355740481999995,-73.6274839
Barichara,Santander,68079,NA,NA,96.05263157894737,94.7360572380536,18.332409972299168,29.064445685693883,13.014066698277226,29.06444512121667,NA,NA,56.578947368421055,72.63157894736841,82.5572728138763,0,0,0,42.08794639117609,6.656303256999999,-73.23154926000001
Barranca de Upía,Meta,50110,NA,NA,46.666666666666664,55.34921430043767,59.333333333333336,76.38321831438455,5,64.57482690157308,NA,NA,6.666666666666665,100,100,13.333333333333334,14.841172365749605,7.367199769743357,40.14613376518017,4.6012526430000005,-72.996437765
Barrancabermeja,Santander,68081,10.5,98.74251497005989,84.4093567251462,86.64464066369821,75.43302114936463,83.47586182140913,37.50208855472013,69.01724049242968,3,96.20253164556962,12.32748538011696,82.60338345864662,93.26584930060281,0.8502024291497976,0.15404584682108377,0.07646879230708857,49.52277353232777,6.993511421315789,-73.79328272894737
Barrancas,La Guajira,44078,NA,NA,100,100,77.29591836734694,80.73156026676133,2.197802197802198,22.92624104518451,NA,NA,3.5714285714285725,42.857142857142854,81.56614259643966,0,0,0,45.97765264712573,10.948224278181819,-72.79517756272728
Barranco de Loba,Bolívar,13074,NA,NA,75,83.248254699099,15.625,23.93400414555684,3.571428571428571,23.934003475585,NA,NA,12.5,62.5,89.3476755602806,0,0,0,33.247851179669546,8.876866826,-74.175443696
Barranquilla,Atlántico,8001,61.736363636363635,92.60642351660316,91.7736369910283,91.907985167941,70.16640232798392,75.47800495291429,13.829164293363672,50.23477327604948,3.1,96.07594936708861,7.250290542216009,84.51817090472552,93.87418162431075,6.189590419501134,3.3223502646269325,1.6492240303773371,47.91299488585686,10.97592682,-74.79525905
Becerril,Cesar,20045,NA,NA,85.71428571428572,94.71960759128831,32.14285714285714,37.81194474069402,3.8461538461538463,37.81194192430577,NA,NA,14.285714285714285,78.57142857142857,92.23874905601764,3.571428571428571,1.7857142857142856,0.8864336017619746,40.50675612794039,9.694413279333334,-73.27043762666666
Belalcázar,Caldas,17088,NA,NA,100,100,7.958477508650518,12.309892298051556,2.2058823529411766,12.309891763673468,NA,NA,17.647058823529417,41.17647058823529,61.242553969438895,0,0,0,31.14003050371335,5.0005500646000005,-75.814588
Belén,Boyacá,15087,NA,NA,50,96.92117016906383,50,94.03192420068491,0,94.0319241472701,NA,NA,0,100,100,0,0,0,44.63209948815898,5.989277861,-72.91161957
Belén,Nariño,52083,NA,NA,93.33333333333333,97.831913453454,56.666666666666664,62.98352976366045,0,44.4752928644235,NA,NA,0,90,98.28677801091935,0,0,0,44.21272380827824,1.6100769860000002,-77.041211755
Belén de Los Andaquies,Caquetá,18094,NA,NA,66.66666666666667,66.66666666666667,47.68518518518518,48.86275444923178,10.454545454545455,23.294131127976463,NA,NA,22.222222222222225,83.33333333333333,85.87421534746295,0,0,0,36.079838601230335,1.420663418,-75.86138187833333
Belén de Umbría,Risaralda,66088,NA,NA,99.28571428571429,98.59630905528762,37.77295918367347,47.65662749224797,11.944444444444445,38.93273022618492,NA,NA,13.928571428571429,75.21825396825396,89.89876456059294,2.857142857142857,1.946071084623018,0.9660351684632402,43.29136093155604,5.205073983666667,-75.84989248
Bello,Antioquia,5088,NA,NA,100,100,63.755749836527336,68.66712910861858,17.518343705323353,53.00069017760513,NA,NA,13.23581560283688,93.04299645390071,98.34676948241761,1.8321513002364065,2.7441266233500983,1.362192185999206,49.16993070472694,6.342081572142857,-75.57809790285714
Belmira,Antioquia,5086,NA,NA,96.55172413793103,97.14910731202588,53.983353151010704,58.15239664445144,4.679802955665025,16.304793156235107,NA,NA,15.517241379310342,41.37931034482759,63.38862114522641,13.793103448275861,13.557974734564132,6.730216850872221,44.10536226193646,6.643098554,-75.65056502
Beltrán,Cundinamarca,25086,NA,NA,0,0,100,100,NA,NA,NA,NA,0,NA,NA,0,0,0,25,4.725358554,-74.76951087750001
Berbeo,Boyacá,15090,NA,NA,83.33333333333333,85.56943910100578,88.88888888888889,87.79816523077803,33.33333333333333,51.19265885964723,NA,NA,8.333333333333334,100,100,0,0,0,47.705135747333884,5.22728723,-73.12703215
Betania,Antioquia,5091,NA,NA,93.47826086956522,92.69815521617932,52.55198487712666,54.58484667276982,0.7905138339920948,9.169693013916946,NA,NA,4.347826086956524,26.08695652173913,46.5656891456061,0,0.14098429726620104,0.06998500231383332,37.235783888440565,5.7491237745,-75.980983695
Betéitiva,Boyacá,15092,NA,NA,100,100,33.33333333333333,37.35713043900199,0,37.35712975036811,NA,NA,0,100,100,0,0,0,42.79004216112139,5.909265195,-72.837661165
Betulia,Antioquia,5093,NA,NA,95.45454545454545,94.42280972677347,11.753902662993573,24.36679052613029,1.8181818181818181,24.36678950631412,NA,NA,9.090909090909088,49.494949494949495,76.38164802570734,9.090909090909092,1.3022835085523239,0.6464572021607045,33.98394423652842,6.167456287,-75.9668815
Betulia,Santander,68092,NA,NA,80,94.79883824640993,28,33.33787517069426,10,33.33787498769006,NA,NA,19.999999999999996,100,100,0,0,0,42.37606485610038,7.060616693,-73.39669605750001
Bituima,Cundinamarca,25095,NA,NA,77.77777777777779,83.69273789646635,13.580246913580247,19.965351218351934,2.7777777777777777,19.96535061237496,NA,NA,11.111111111111116,55.55555555555556,84.17570521613276,0,0,0,31.694205769704865,4.819063718000001,-74.53547799333333
Boavita,Boyacá,15097,NA,NA,60,87.29201634237018,20,48.357179234959055,0,48.35717854063391,NA,NA,0,80,96.36991579818023,0,0,0,35.63810103413722,6.330652563,-72.5849594
Bochalema,Norte de Santander,54099,NA,NA,100,100,19.387755102040817,21.902079353145012,13.186813186813188,21.902078897417287,NA,NA,42.85714285714286,71.42857142857143,90.13827958482717,0,4.606440316298192,2.286649949291555,42.34488470710275,7.635546871666667,-72.63438215
Bogotá D.C.,Bogotá D.C.,11001,44.183879612451044,94.70851741168251,54.94835257335257,54.12406070256458,71.88804742050053,77.44068213795718,12.10789203599127,54.04583285914906,10.917748917748918,86.18006466107732,5.456003916718203,91.89922244618012,96.6057649421588,7.619482452071738,1.1830526063275268,0.5872706464244486,45.692950018500916,4.3168398514615385,-74.20605366615385
Bojacá,Cundinamarca,25099,NA,NA,83.33333333333334,83.72000785054266,8.333333333333332,37.40935538334639,0,37.40935521351709,NA,NA,0,33.33333333333333,87.02767206124709,8.333333333333332,2.831044136694241,1.4053382844687181,31.429704640875674,4.7236671845,-74.34194967
Bojaya,Chocó,27099,NA,NA,100,100,33.33333333333333,36.87432089441897,25,36.874320789397125,NA,NA,55.55555555555556,100,100,0,0,0,50.06938270757344,6.5567335449375,-76.902715833125
Bolívar,Cauca,19100,40,95.20958083832335,50,50,19.040662283905526,49.03514807823642,1.0510510510510511,49.03514701533278,3.6666666666666665,95.35864978902954,16.216216216216218,63.513513513513516,87.38191276889775,24.324324324324326,5.278153153153154,2.6200900937124896,39.18777933817779,1.8721178715,-76.96098405833334
Bolívar,Santander,68101,NA,NA,78.57142857142857,92.97098628346849,9.183673469387754,24.544467396081387,2.197802197802198,24.54446705323848,NA,NA,14.28571428571429,42.857142857142854,74.4757126414537,7.142857142857142,5.803571428571429,2.880909205726418,32.264933225421295,6.112554097222222,-73.8076207011111
Bolívar,Valle del Cauca,76100,NA,NA,95.45454545454545,97.88036670467667,53.16804407713499,65.62310227253658,2.5974025974025974,48.43465267948716,NA,NA,13.636363636363635,75,88.76447657750518,3.0303030303030307,1.1636363636363638,0.5776323688572577,44.67653757799932,4.3484102907,-76.25530965600001
Bosconia,Cesar,20060,NA,NA,92.5,96.53120341498816,58.7625,71.56889415592782,7.222222222222222,52.61482336787929,NA,NA,10.5,79.16666666666667,91.5887407429444,0,0,0,45.149925031819635,9.886818755666667,-73.85513575666667
Boyacá,Boyacá,15104,NA,NA,79.16666666666667,90.67846983834545,55.55555555555556,68.23038583010424,2.2222222222222223,57.640512568434865,NA,NA,4.166666666666666,94.44444444444444,97.36266504114897,0,0,0,43.71088575801821,5.454237164,-73.36230272
Briceño,Antioquia,5107,NA,NA,97.36842105263158,99.77856058820461,12.19178550665162,21.481533436017752,4.312865497076023,21.48153294664791,NA,NA,26.608187134502923,54.09356725146199,78.85999155027281,0,1.3136842105263158,0.6521165427362199,36.06006479728017,7.1375772428,-75.569564736
Briceño,Boyacá,15106,NA,NA,80,90.34374366509073,60,73.48753732455712,0,46.97507332613683,NA,NA,0,80,95.00374175456149,0,0,0,42.39392289699351,5.690878897,-73.9232597
Bucaramanga,Santander,68001,34.79453781512605,95.83298948321844,56.8064182194617,58.31878675037693,62.9844513098275,72.65391942826099,11.792992141424197,55.07429436301908,8.227310924369748,89.58568237421551,9.001589902968481,92.83720731455924,98.00987972077044,5.3172600691524154,1.2196764106683353,0.605450806067996,44.40183906887458,7.172108315333333,-73.12675052833333
Bucarasica,Norte de Santander,54109,NA,NA,98.48484848484848,98.94076071621554,1.7447199265381081,9.389119699399918,0.2331002331002331,9.389119506807154,NA,NA,7.57575757575758,12.121212121212121,43.78102602939567,9.090909090909092,7.930241694437863,3.9365943165043826,26.657117262574452,8.084113688666667,-72.88900189333333
Buena Vista,Boyacá,15109,NA,NA,85.18518518518519,80.15225272810979,43.28703703703704,45.49499058782283,3.571428571428571,18.24248432328274,NA,NA,8.333333333333334,59.72222222222222,71.05951463067659,3.7037037037037037,1.820179381043438,0.9035421721710812,37.13172737072345,5.512431151,-73.94230522
Buenaventura,Valle del Cauca,76109,17.5,97.90419161676647,84.21052631578948,84.21052631578948,63.91215526488806,69.12897018034128,19.80744276820226,41.34504190610456,6,92.40506329113924,15.037112010796221,77.9423076923077,90.51547856343596,0.8088235294117648,0.27285634227186745,0.13544665693644378,45.19969305580758,3.883085,-77.019447
Buenavista,Córdoba,23079,NA,NA,100,100,53.77777777777778,57.80511782878891,5,36.7076757436632,NA,NA,6.666666666666665,100,100,0,3.3333333333333335,1.654676056622353,46.35493075725961,8.211365650642858,-75.40459815285715
Buenavista,Quindío,63111,NA,NA,94.11764705882354,86.1281705591916,20.9919261822376,23.63141905010661,1.4705882352941175,23.63141503828666,NA,NA,11.764705882352944,73.52941176470588,77.74943163680499,2.941176470588235,1.2482010719911159,0.6196105283022159,35.8356625854908,4.382199740000001,-75.73608289500001
Buenavista,Sucre,70110,NA,NA,98.66666666666667,99.41444139069966,31.92296296296296,42.02899305607585,12.111111111111109,42.02899081176326,NA,NA,19.11111111111111,80,89.08498355741622,0,0,0,42.9400245323676,9.375311107333333,-74.95526083833333
Buenos Aires,Cauca,19110,NA,NA,100,100,24.371301775147927,42.69279406854598,10.256410256410255,42.69279379907546,NA,NA,20.192307692307693,73.07692307692308,91.89722339498377,0,0,0,42.04426911493806,3.0491005232,-76.672415872
Buesaco,Nariño,52110,77.33333333333333,90.73852295409182,76.66666666666667,78.44677859075628,69.12440312213039,71.24589479353381,3.625541125541125,28.114736383904894,19,75.9493670886076,6.56060606060606,69.6590909090909,85.48903843641544,0,0,0,44.9363736407193,1.3627983999166666,-77.12960184083333
Bugalagrande,Valle del Cauca,76113,NA,NA,66.66666666666667,66.66666666666667,41.89623507805326,55.69634160792302,4.545454545454546,33.54451224929353,NA,NA,12.121212121212123,53.03030303030303,87.95398465316228,14.646464646464645,7.6767676767676765,3.8107691000999644,35.56372288331521,4.212950591125,-76.103968755
Buriticá,Antioquia,5113,NA,NA,87.5,89.34711945774553,22.212603878116344,33.87833677692773,9.210526315789473,33.878336174995496,NA,NA,20.394736842105267,68.42105263157895,69.95682947993308,0,0,0,36.447382307472395,6.753446216714286,-75.90530156285715
Busbanzá,Boyacá,15114,NA,NA,100,100,33.33333333333333,41.04105354789901,0,41.041052892877985,NA,NA,0,100,100,0,0,0,43.12494426193021,5.831389532,-72.88416175
Cabrera,Cundinamarca,25120,NA,NA,80,90.45951753083388,14,40.072620108449435,4.444444444444445,40.07261973814241,NA,NA,19.999999999999996,60.00000000000001,88.06320935849826,0,5.481738954993773,2.72115065924467,36.84024373240586,3.98461914,-74.48418723
Cabrera,Santander,68121,NA,NA,100,100,27.169550173010382,31.111772869777006,16.61764705882353,31.111772192941142,NA,NA,49.411764705882355,88.23529411764707,90.06842313644356,8.823529411764707,3.4403110156936694,1.7077800795007327,46.962370233503904,6.592260802,-73.2465029
Cabuyaro,Meta,50124,NA,NA,100,100,21.875,33.03029889847928,10.714285714285714,33.03029875458229,NA,NA,25,75,94.09540575059907,0,0,0,41.79227185121491,4.34334830425,-72.8776967525
Cáceres,Antioquia,5120,NA,NA,88.23529411764706,96.09722970084977,53.28719723183391,73.92757418429377,0.7352941176470588,47.85514831924597,NA,NA,2.941176470588236,29.411764705882355,81.72725311539928,0,0,0,40.4932388795161,7.7666531197,-75.278958628
Cachipay,Cundinamarca,25123,NA,NA,90,89.06398996814522,8.5,13.086300791510025,3.684210526315789,13.086300510821665,NA,NA,30.000000000000004,45,63.24425507206832,25,44.32097457627119,22.00105663125719,39.44552614232434,4.723042986333334,-74.45322732
Cachirá,Norte de Santander,54128,NA,NA,100,100,22.222222222222218,35.09844693596922,6.666666666666667,35.09844661554836,NA,NA,16.666666666666664,83.33333333333333,97.03778257961999,0,0,0,41.9113744004071,7.6978300564,-73.083064978
Cácota,Norte de Santander,54125,NA,NA,80,67.49785695573614,10,15.046195487997034,0,15.046194326568271,NA,NA,0,40,68.57550246188626,0,0,0,25.55632317323813,7.268705462,-72.64205884
Caicedo,Antioquia,5125,NA,NA,99.10714285714286,99.5366212016055,13.64795918367347,32.98990195613556,0.2597402597402597,32.98990130471042,NA,NA,4.464285714285715,58.035714285714285,81.37604720990984,0.8928571428571428,0.9877366218483783,0.49031524152646766,35.617120152221766,6.405567003,-75.98281889
Caicedonia,Valle del Cauca,76122,36,95.68862275449102,74.35897435897436,79.87558367443432,45.32967032967033,55.3752602950786,0,33.06288941252342,5,93.67088607594937,0,63.64468864468864,80.62257657782078,6.666666666666666,0,0,38.87762379240016,4.2993442564,-75.831302628
Caimito,Sucre,70124,NA,NA,90,95.71392405505769,57,69.08959492057225,4.444444444444445,38.17918966687084,NA,NA,9.999999999999998,60.00000000000001,83.51333247954827,25,10.497612490632564,5.211044411984834,46.49918766729488,8.7917869629,-75.12526171500001
Cajamarca,Tolima,73124,NA,NA,88.18181818181819,83.70613487879957,72.14876033057851,77.89121321314006,0.9090909090909091,44.72803248522322,NA,NA,1.8181818181818188,72.72727272727273,88.12626262626263,3.6363636363636367,1.8181818181818183,0.9025505763394651,44.07347772349578,4.412845228,-75.43816919
Cajibío,Cauca,19130,NA,NA,57.14285714285714,69.77286176895024,18.36734693877551,23.95272826535245,4.761904761904762,23.952727691540318,NA,NA,14.28571428571429,71.42857142857142,91.16803162769752,0,0,0,31.89818329271121,2.621383438857143,-76.64899101071428
Cajicá,Cundinamarca,25126,11,98.68263473053892,50,50,70.64120282763841,73.20697278662739,2.1623972169512964,28.551926414576858,1,98.73417721518987,4.8483455882352935,58.27205882352941,77.9341055203206,0,0,0,34.834199015309004,4.91876468055,-74.0335783525
Calamar,Bolívar,13140,NA,NA,50,90.19985580328654,12,30.754440087423404,2.2222222222222223,30.754439991323775,NA,NA,9.999999999999998,50,89.42752606877579,0,19.99899064765022,9.927555294384355,33.13914455670387,10.199809871666666,-74.97012373833333
Calamar,Guaviare,95015,NA,NA,87.5,96.78333980966161,15.625,24.266948606744748,3.571428571428571,24.266948502683462,NA,NA,12.5,62.5,90.37095341503002,0,0,0,35.737970036624084,1.948184919,-72.56519350666666
Calarcá,Quindío,63130,NA,NA,91.66666666666667,91.66666666666667,55.75540580027759,62.94892511137059,3.8493589743589745,44.42338524711962,NA,NA,7.428774928774929,87.66025641025641,94.43396967548185,5.833333333333333,0,0,43.91019659519587,4.4512513912500005,-75.70156327583334
Caldas,Antioquia,5129,NA,NA,91.66666666666667,98.71257189551056,26.388888888888886,38.54184299837305,1.5151515151515154,38.54183966470466,NA,NA,5.5555555555555545,83.33333333333333,98.6552355499086,19.444444444444446,27.0845978580993,13.444870673712593,45.84937812542223,6.080578740133333,-75.637331532
Caldas,Boyacá,15131,NA,NA,100,100,75,84.30639823030813,0,52.91919437528322,NA,NA,0,100,100,0,0,0,47.815733172452255,5.5757081835,-73.86395271999999
Caldono,Cauca,19137,NA,NA,100,100,12.5,20.739236262434787,0,20.739236216907216,NA,NA,0,50,80.89070952502188,0,0,0,33.102722344314245,2.8041061524285715,-76.51236874571428
Cali,Valle del Cauca,76001,37.57539682539682,95.49995247600037,77.72337051618548,77.85063161278049,55.35030375206615,63.40519336370062,10.923278962514546,47.72170308566327,10.329365079365079,86.92485432991762,11.428924327420932,88.56235259043548,96.19016552904414,3.6522449553945617,1.1041561162917266,0.5481062065203139,44.840114945547484,3.406996142924528,-76.56139954018867
California,Santander,68132,NA,NA,100,100,25,56.34244050476903,0,56.3424396758878,NA,NA,0,100,100,0,0,0,43.75840368225173,7.3582172335,-72.93133846500001
Calima,Valle del Cauca,76126,NA,NA,97.43589743589743,99.81705374068908,44.899797891250884,64.54995534639919,8.867521367521368,46.82493266200527,NA,NA,22.507122507122507,71.36752136752136,91.78522766609694,12.820512820512823,3.4884146540050858,1.7316588610658297,46.53914486585175,3.9329887474,-76.460078634
Caloto,Cauca,19142,NA,NA,85,84.10133858083987,16.333333333333332,19.719155374335358,3.3333333333333335,19.71915417884014,NA,NA,15.000000000000002,68.33333333333333,78.6301132918818,0,0,0,33.677327931550636,3.0723791454666665,-76.38356605333334
Campamento,Antioquia,5134,NA,NA,92,88.68007186957895,7.52,8.969934814654938,3.6666666666666665,8.969934411506523,NA,NA,36,40,45.91835442225105,0,0,0,29.3413661611956,7.01222986225,-75.2778669125
Campo de La Cruz,Atlántico,8137,NA,NA,98.57142857142858,95.78863409501966,7.428571428571429,42.84479767717783,6.086956521739131,42.84479756776806,NA,NA,68.57142857142857,40,79.0800398670102,2.857142857142857,1.310001912411551,0.6502886395790658,40.2899354674099,10.420339115,-74.85854932999999
Campoalegre,Huila,41132,NA,NA,97.72727272727272,99.2932174815199,41.16161616161616,48.33371014385994,0.9523809523809524,31.11161306255768,NA,NA,9.027777777777779,56.56565656565657,81.25023650206525,10.29040404040404,14.494942270697255,7.195330175233797,43.257919953841025,2.65046126,-75.34381264428572
Campohermoso,Boyacá,15135,NA,NA,100,100,33.33333333333333,45.35064235485375,0,45.350641511150336,NA,NA,0,100,100,0,0,0,43.516725062562465,5.015995374,-73.11951176666666
Canalete,Córdoba,23090,NA,NA,100,100,28,29.29134737689955,10,29.291347195433005,NA,NA,19.999999999999996,100,100,0,0,0,44.29921339789996,8.72983273288889,-76.21265344888889
Cañasgordas,Antioquia,5138,NA,NA,92.5925925925926,92.01073966192854,9.970637916765863,19.39140603054491,3.812483812483812,19.39140573644203,NA,NA,25.757575757575758,49.494949494949495,68.20849774736078,0,0,0,32.83989845583652,6.838775567166667,-76.03705874166667
Candelaria,Atlántico,8141,NA,NA,100,100,12.396694214876035,26.547912966568177,3.6363636363636362,26.547912797109767,NA,NA,18.181818181818176,54.54545454545454,83.58431298697751,0,1.515151515151515,0.7521254802828875,36.469075775226585,10.472564720000001,-74.89026196
Candelaria,Valle del Cauca,76130,NA,NA,75,75,45.293474252446075,65.66227855624824,20.894024276377216,54.2163712640898,NA,NA,20.602240896358545,54.9953314659197,85.52136354791143,12.394957983193278,6.4011992396974975,3.1775733346789976,40.303614884570806,3.3996023452,-76.3917301876
Cantagallo,Bolívar,13160,NA,NA,96.7741935483871,99.27436147857816,51.821019771071796,65.96527003669848,0.43010752688172044,31.93054004401665,NA,NA,3.2258064516129057,19.35483870967742,80.8415202228809,4.838709677419355,3.416543282860398,1.6959817099689092,41.12046538057429,7.306284002,-73.98364204285714
Caparrapí,Cundinamarca,25148,NA,NA,91.42857142857143,79.10406725920635,4.489795918367347,11.736478828956738,1.680672268907563,11.736478447456498,NA,NA,25.71428571428571,25.71428571428571,57.315258152957504,0,0,0,27.016674116867122,5.3955775692,-74.528179118
Capitanejo,Santander,68147,NA,NA,100,100,75,75,0,49.999996047430514,NA,NA,0,100,100,0,0,0,47.72727272727273,6.533179982,-72.69919959
Caqueza,Cundinamarca,25151,NA,NA,96.7741935483871,97.21825111687939,4.031429353612449,16.44457521455816,1.725974234399848,16.444575090961717,NA,NA,21.473278767453056,25.324987963408763,58.569580508872335,4.477611940298507,0.3316749089374556,0.1646443591203621,29.685109265084314,4.40410106,-73.9464742
Caracolí,Antioquia,5142,NA,NA,95,93.72393502409543,7,8.646853815798766,2.1052631578947367,8.646853367878231,NA,NA,19.999999999999996,40,45.735028949575494,0,0.3334409871377521,0.1655210453140081,28.428185725437835,6.409854727,-74.75744944
Caramanta,Antioquia,5145,NA,NA,100,100,45.167824074074076,51.81706959995769,7.083333333333334,27.725603983133198,NA,NA,20.13888888888889,72.91666666666666,82.87108367990456,5.5555555555555545,1.9432362777777776,0.9646279623596498,44.015265891989394,5.558226526,-75.61925712666667
Carcasí,Santander,68152,NA,NA,100,100,12.499999999999998,22.65429567458188,4.545454545454546,22.65429509933477,NA,NA,25,58.33333333333333,86.80093424425803,0,0,0,37.25763798160253,6.6407814785,-72.608608085
Carepa,Antioquia,5147,60,92.81437125748504,81.57894736842105,74.05170406304426,17.445752539242843,31.50661366473727,3.5505430242272347,31.506613362661316,1,98.73417721518987,13.596491228070176,70.6140350877193,90.45459475513846,0,0,0,39.26898661221874,7.802136557,-76.67553185538462
Carmen de Apicala,Tolima,73148,NA,NA,100,100,39.77777777777778,57.039364921445376,6.666666666666667,57.03936410151894,NA,NA,13.333333333333334,100,100,11.111111111111109,5.5555555555555545,2.757793427703921,48.74923661759943,4.147912057,-74.71616942
Carmen de Carupa,Cundinamarca,25154,NA,NA,81.25,88.70489367477883,31.25,58.32797434253985,15.476190476190474,58.32797264534587,NA,NA,31.25,93.75,99.0407756671645,31.25,8.066062000155291,4.004015898866509,49.306355641790496,5.349115758,-73.90157376
Carmen del Darien,Chocó,27150,NA,NA,100,100,7.555555555555556,20.090655144118188,0.9523809523809524,20.09065507635487,NA,NA,6.666666666666665,33.33333333333333,76.051564596458,0,0,0,31.331832386228427,7.057373894916667,-76.9267572325
Carolina,Antioquia,5150,NA,NA,82.14285714285714,92.55184922474672,9.834467120181406,16.665939580406473,3.1501831501831505,16.665939085723654,NA,NA,17.38095238095238,45,69.96213722478058,7.142857142857142,3.166575828360221,1.5718971614000252,31.68815599606593,6.725977146,-75.28317011
Cartagena,Bolívar,13001,18.72222222222222,97.75781769793745,65.04065040650407,67.68279566715783,71.52798265918491,77.42370276543737,16.50086266390614,53.718589799477925,5.344444444444444,93.23488045007032,8.230529044420878,87.52958937198068,92.1149634111077,7.227564102564102,1.016562418133722,0.5046244480043972,47.151810076015494,10.351321809774193,-75.54423180451613
Cartagena del Chairá,Caquetá,18150,NA,NA,95,81.35574645702296,23.75,41.36768738649788,8.333333333333332,41.367687079501586,NA,NA,12.5,70,95.59416589100397,0,0,0,38.90008482435074,0.7659345412666667,-74.54132381066667
Cartago,Valle del Cauca,76147,26,96.88622754491017,86.16071428571429,86.31214493625097,54.51938066893424,60.358263824117344,15.369352869352868,47.14434993670307,2,97.46835443037975,9.300595238095239,83.1547619047619,94.0300776192375,0.4166666666666667,1.395164695945946,0.6925636852279686,44.481309543148626,4.725985404833334,-75.940791365
Caruru,Vaupés,97161,NA,NA,86.66666666666667,80.52286052821607,6.666666666666668,12.788759206001705,0,12.788758735493266,NA,NA,0,26.666666666666668,62.72437210177929,26.666666666666668,12.699977094240836,6.30430440524779,29.246085454741124,1.014597709,-71.29779326
Casabianca,Tolima,73152,NA,NA,96.96969696969697,96.5552876334826,26.905417814508723,36.56773190539702,1.8181818181818181,36.56772756069902,NA,NA,9.09090909090909,87.87878787878788,92.81121335892263,0,0,0,40.781566042716975,5.091443527,-75.087972995
Castilla la Nueva,Meta,50150,NA,NA,96.55172413793103,98.1068810964801,46.48731668648434,57.13059256365535,8.454325468844523,35.69588828242549,NA,NA,10.632183908045977,56.89655172413793,86.9435701778826,37.35632183908046,18.535644938232316,9.201146362003897,49.76217824715064,3.7997360374999998,-73.53101068666666
Caucasia,Antioquia,5154,20,97.60479041916167,42.30769230769231,32.39609843942224,51.80802103879027,53.16865162009529,1.0796221322537112,6.33730306412224,6,92.40506329113924,8.974358974358976,23.076923076923077,37.83455959665773,7.6923076923076925,1.4543778053410046,0.7219572395342176,33.092019883589934,7.9402032490625,-75.053494378125
Cepitá,Santander,68160,NA,NA,100,100,33.33333333333333,34.23313214731259,0,34.23312320323486,NA,NA,0,100,100,0,0,0,42.50604231642236,6.753518402,-72.97353646
Cereté,Córdoba,23162,NA,NA,93.75,79.87835132090439,6.968853379017013,27.813141233232578,3.3716371286497515,27.813141179812014,NA,NA,26.766304347826086,38.586956521739125,84.68785138126246,6.521739130434782,0,0,33.485894040278744,8.896596506368422,-75.81055283263157
Cerinza,Boyacá,15162,19,97.72455089820359,100,100,65.27777777777777,72.57641258202155,25,58.86461679337375,1,98.73417721518987,16.666666666666668,100,100,0,0,0,55.83538433993909,5.956028189,-72.94827585
Cerrito,Santander,68162,NA,NA,95,99.30245478205356,56,66.14860098272436,2.2222222222222223,32.2972018044059,NA,NA,4.999999999999999,50,90.85043608030918,0,0,0,42.54430771964033,6.83165218,-72.695389345
Cerro San Antonio,Magdalena,47161,NA,NA,100,100,75,78.515625,0,57.031249776204426,NA,NA,0,100,100,0,0,0,48.046875,10.298190562,-74.83839984
Chachagüí,Nariño,52240,NA,NA,100,100,52.08333333333333,63.44059537924233,6.666666666666667,51.25412638291937,NA,NA,8.333333333333334,100,100,6.25,1.9260453684391732,0.9560943465374033,47.77176379644414,1.3894421933636363,-77.28505918727272
Chaguaní,Cundinamarca,25168,NA,NA,57.14285714285714,67.55533605627836,18.36734693877551,35.41018552712125,4.761904761904762,35.410185243784454,NA,NA,14.28571428571429,71.42857142857142,98.24531594659017,14.285714285714285,7.113703680598878,3.531262546257981,35.64799205458037,4.948915827,-74.59345529
Chalán,Sucre,70230,NA,NA,100,100,50,84.36231371589241,0,84.36231339755973,NA,NA,0,100,100,0,0,0,48.57839215599022,9.5323268738,-75.31061196
Chámeza,Casanare,85015,NA,NA,50,69.95368447237578,16.666666666666664,25.255697329513733,0,25.25569668748446,NA,NA,0,66.66666666666666,89.55532283262744,33.33333333333333,8.191721132897603,4.0663934463399,33.062680534583734,5.214311749,-72.87023558
Chaparral,Tolima,73168,NA,NA,100,100,50.67460317460317,56.61254982213984,7.878365021222163,38.01792719178341,NA,NA,14.761904761904763,84.6938775510204,94.12402434105796,0,0,0,45.24876769072347,3.7173839478,-75.605567564
Charalá,Santander,68167,NA,NA,87.5,95.34384798547751,35.59027777777777,38.461520329695475,18.45238095238095,38.46151848412402,NA,NA,22.916666666666668,81.25,90.39300280547894,37.5,27.697077922077924,13.74890750281978,49.89578926748864,6.230568521666666,-73.14366172666666
Charta,Santander,68169,NA,NA,87.5,89.12850697372494,31.944444444444443,36.21496960733772,13.333333333333334,36.21496830717974,NA,NA,25,100,100,0,0,0,43.920114032621854,7.280820472,-72.96879846
Chía,Cundinamarca,25175,30.5,96.34730538922156,81.45956607495069,80.07157019344403,43.90673429134967,53.18472484304302,0,44.67285542304894,1.5,98.10126582278481,0,83.31668331668331,93.19327546207379,1.2820512820512822,0.41420118343195267,0.2056106342548486,39.87346774753487,4.87071188476923,-74.05836754461538
Chigorodó,Antioquia,5172,NA,NA,78.78787878787878,68.54652609424919,47.474747474747474,56.213317099378706,0,34.31997476781633,NA,NA,0,68.18181818181819,89.61493566824599,0,0,0,36.92911866875426,7.597805034666667,-76.65861022166666
Chimá,Córdoba,23168,NA,NA,50,70.13451709649829,12,24.062798674156564,2.2222222222222223,24.062798453901234,NA,NA,9.999999999999998,50,79.79243398486415,0,0,0,27.110179270703746,9.094356576444444,-75.65286788222222
Chimá,Santander,68176,NA,NA,66.66666666666666,89.40078001539324,33.33333333333333,55.43692396417272,0,55.43692268823407,NA,NA,0,100,100,0,0,0,40.439791270869634,6.344351721,-73.37374774
Chimichagua,Cesar,20175,NA,NA,100,100,54.53559027777778,58.411581976215686,0.4166666666666667,16.823162643799815,NA,NA,1.5625,37.84722222222222,69.15198802423876,1.5625,0,0,40.43455551914157,9.257190096939395,-73.82545586
Chinácota,Norte de Santander,54172,NA,NA,96.15384615384616,98.51651876996802,13.621301775147929,28.545937358328857,5.256410256410256,28.54593704786031,NA,NA,21.538461538461533,56.92307692307693,87.08083524678833,0,0,0,37.057853456548,7.610811020833333,-72.604409145
Chinavita,Boyacá,15172,NA,NA,60,88.07661176549078,20,59.02298076410545,0,59.02298044768496,NA,NA,0,80,98.45561968337422,0,4.18513555303577,2.077513077998171,37.43798734945494,5.167483821,-73.36847648
Chinchiná,Caldas,17174,NA,NA,98.88888888888889,99.57746121211144,46.074074074074076,56.518340175186445,0.8045977011494253,34.77750930423294,NA,NA,5.5555555555555545,65,82.48038306585624,11.111111111111109,2.729578576069804,1.3549704943476122,42.787875812001396,4.968536278875,-75.6522830475
Chinú,Córdoba,23182,NA,NA,78.57142857142857,92.29553893156137,19.642857142857142,45.81575749660366,0,45.81575736401943,NA,NA,0,78.57142857142857,94.85399262797144,0,0,0,37.250091212895526,9.033475769,-75.36202533
Chipaque,Cundinamarca,25178,NA,NA,55.55555555555556,77.1742356782428,16.04938271604938,29.290036698736035,5.555555555555555,29.290036370792084,NA,NA,22.22222222222222,66.66666666666666,90.43855743544079,0,0,0,32.99565568440627,4.437041954,-74.02522480666667
Chipatá,Santander,68179,NA,NA,88.88888888888889,85.9744116300028,56.79012345679013,56.76034164014436,2.7777777777777777,13.520682002653162,NA,NA,5.555555555555558,55.55555555555556,60.49832316397536,5.555555555555555,2.7777777777777777,1.3788967138519606,39.82703449702012,6.088493242,-73.63065755
Chiquinquirá,Boyacá,15176,2,99.76047904191617,82.72727272727273,83.10435299775953,70.20779220779221,76.54401048372326,18.475033738191634,56.997351440848256,1,98.73417721518987,9.415584415584416,83.69047619047619,90.542055302517,2.2142857142857144,0.9083858359741275,0.45092528788838065,45.94285992224841,5.61412789,-73.81838763
Chíquiza,Boyacá,15232,NA,NA,90.625,95.53511790371455,50.34722222222222,52.20085902712133,11.111111111111109,36.267808806411466,NA,NA,8.333333333333334,83.33333333333333,93.8018833914122,8.333333333333332,2.0086239666587216,0.9970865953164004,44.27866565987203,5.6225466394999994,-73.46734905
Chiriguaná,Cesar,20178,NA,NA,99.56709956709956,99.61679376332725,42.18952043627368,47.39260168474639,0.1367053998632946,21.08890178523428,NA,NA,3.030303030303031,55.84415584415584,75.0954545481828,0,0,0,39.01641172817132,9.4165423109,-73.527755075
Chiscas,Boyacá,15180,NA,NA,100,100,65.625,65.20468695604481,21.428571428571427,30.409373525449496,NA,NA,18.75,87.5,94.22184076741021,0,0,0,47.832263004912335,6.563968110499999,-72.48669978000001
Chita,Boyacá,15183,NA,NA,75,84.5792849767883,62.5,73.0230284463995,50,73.02302823634199,NA,NA,25,100,100,0,0,0,51.82748303847162,6.187082996,-72.47189235
Chitagá,Norte de Santander,54174,NA,NA,100,100,12.396694214876035,20.876417682639307,3.6363636363636362,20.876417185610645,NA,NA,18.181818181818176,54.54545454545454,81.02934044921517,0,0,0,35.515098973669716,7.101083579,-72.605586608
Chitaraque,Boyacá,15185,NA,NA,100,100,17.5,25.887142594668916,7.142857142857142,25.887140112208414,NA,NA,18.75,63.75,88.4700873379707,6.25,3.125,1.5512588030834558,39.311485988961834,6.027425133,-73.4471004
Chivatá,Boyacá,15187,NA,NA,88.88888888888889,83.38581596091927,33.33333333333333,39.04741939453936,0,39.04741545747478,NA,NA,0,88.88888888888889,97.05731900136854,5.5555555555555545,1.8518518518518519,0.919264475901307,39.902576122840635,5.558948845,-73.28252944
Chivolo,Magdalena,47170,NA,NA,92.85714285714286,97.33730004265033,39.002267573696145,46.474410487388454,21.428571428571427,46.47440995543362,NA,NA,30.952380952380953,92.85714285714286,97.33730004265033,0,0,0,47.113319658329395,10.053562273833334,-74.50555881333334
Chivor,Boyacá,15236,NA,NA,100,100,50,50.585097378959844,0,50.58509663157407,NA,NA,0,100,100,50,9.701637016800396,4.815919944522218,51.37296857638931,4.887781661,-73.36689376
Choachí,Cundinamarca,25181,NA,NA,87.5,94.66811751904244,12.5,76.36878804491326,0,76.36878799348517,NA,NA,0,50,98.25897714907508,12.5,4.166666666666666,2.0683450707779407,39.82099040458867,4.570563418333333,-73.92287085666666
Chocontá,Cundinamarca,25183,NA,NA,73.91304347826087,73.92315256591714,40.04631073251674,48.05969964133635,1.217578062876344,30.746265784130966,NA,NA,10.01011122345804,54.12874957869902,66.56750526319361,0,0,0,32.376153847278715,5.145223894,-73.68352344
Cicuco,Bolívar,13188,NA,NA,100,100,10.743801652892564,29.307375105693872,1.8181818181818181,29.307374952217057,NA,NA,9.090909090909093,45.45454545454546,85.00214957264491,0,0,0,34.674269335897066,9.226225418333334,-74.709247745
Ciénaga,Magdalena,47189,NA,NA,71.875,74.7956177032667,59.375,64.80623486394026,7.142857142857142,29.612469238153352,NA,NA,9.375,68.75,95.22032560209581,0,0,0,38.3666767217894,10.929009546666666,-74.13831838222222
Ciénaga de Oro,Córdoba,23189,NA,NA,58.82352941176471,45.309038656846205,7.266435986159169,23.219589258318678,1.4705882352941175,23.219589203893587,NA,NA,11.764705882352944,35.29411764705882,87.8519557509138,35.294117647058826,5.60723683412759,2.7834481599725542,28.60770576998795,8.852828540428572,-75.61398702380953
Ciénega,Boyacá,15189,NA,NA,86.66666666666667,96.38436923031405,53.77777777777778,71.10781418212962,5,56.66172016501308,NA,NA,6.666666666666665,100,100,0,0,0,45.569996471838316,5.408702192,-73.29606129
Cimitarra,Santander,68190,NA,NA,93.75,99.13092680625128,15.798611111111109,24.065829863812937,5,24.065829718391726,NA,NA,17.708333333333332,63.541666666666664,90.83760244800013,0,1.647431005308654,0.8177893918264567,37.48165369330096,6.37834029205,-74.2145103525
Circasia,Quindío,63190,17,97.96407185628743,80.55555555555556,82.32692893254281,46.22222222222222,52.12810085382099,6,42.55371897070361,3,96.20253164556962,6.666666666666667,93.33333333333333,98.49954271271311,0,0,0,43.61091526777132,4.59441718,-75.66376196730769
Cisneros,Antioquia,5190,NA,NA,100,100,27.19198790627362,46.08558462744503,0.634920634920635,46.08558333910494,NA,NA,6.349206349206349,79.36507936507937,88.65273030865076,11.111111111111109,1.7490551776266061,0.8682359172390304,42.00071921795932,6.537761957,-75.08720761
Ciudad Bolívar,Antioquia,5101,NA,NA,50,50,72,72.46008329596684,30,44.92016601806167,NA,NA,20,100,100,0,0,0,37.90546211781517,5.8389947442,-76.01144038
Clemencia,Bolívar,13222,NA,NA,92.85714285714286,96.68273410752948,9.183673469387754,17.375728674183208,2.197802197802198,17.375728561760454,NA,NA,14.28571428571429,42.857142857142854,74.5649984738808,14.285714285714285,0,0,33.117331928045246,10.552236023333334,-75.27663549333333
Cocorná,Antioquia,5197,NA,NA,92.85714285714286,99.15984803141382,13.729128014842301,22.658512480385784,2.380952380952381,22.658511931087112,NA,NA,7.142857142857145,53.896103896103895,74.42905458595064,0,0,0,33.29578176269535,6.042443199666667,-75.16062395
Coello,Tolima,73200,NA,NA,91.66666666666666,93.22843993695956,54.166666666666664,59.42122693475061,0,45.894966258056485,NA,NA,0,88.88888888888889,96.73193195739648,4.166666666666666,2.810946013889511,1.3953615196923053,43.96105364000054,4.33813672025,-74.91387119125
Cogua,Cundinamarca,25200,NA,NA,0,0,50,53.12300746012015,0,53.123006264354736,NA,NA,0,100,100,50,0,0,32.10209158728365,5.066563645636363,-73.97315615090909
Colombia,Huila,41206,NA,NA,100,100,75,87.05253307886596,0,61.15759873817095,NA,NA,0,100,100,33.333333333333336,19.614333649889204,9.736610477122136,55.90091647759151,3.4981968046666667,-74.74190198
Colón,Nariño,52203,NA,NA,88.46153846153847,83.2646381203689,53.84615384615385,56.69744762458855,0,13.394894505721314,NA,NA,0,30.76923076923077,64.39175227535992,0,0,0,36.804569961358645,1.65402356975,-77.05321420499999
Colón,Putumayo,86219,NA,NA,88.88888888888889,95.54348813758841,16.04938271604938,35.77985862669277,5.555555555555555,35.77985790760276,NA,NA,22.22222222222222,66.66666666666666,93.09800524625503,0,0,0,38.52764255090172,1.1992081475,-76.9589621975
Coloso,Sucre,70204,NA,NA,79.16666666666667,86.01630501377947,55.55555555555556,59.349709982285844,3.0303030303030303,18.699419822179273,NA,NA,8.333333333333332,50,76.71507394691254,0,0,0,38.93584173092988,9.511061542307692,-75.36118580384615
Cómbita,Boyacá,15204,32,96.16766467065868,75,75,32.72569444444444,40.165554094077116,2.786796536796537,40.16555196265331,6.5,91.77215189873418,11.458333333333334,82.29166666666666,89.43908892232574,0,0,0,40.4981298634751,5.630419978,-73.30886938666667
Concepción,Antioquia,5206,NA,NA,85,95.1076284559665,29.75,62.41198737340771,2.368421052631579,62.411986292072505,NA,NA,17.5,75,91.91348950708746,5,33.32370017053167,16.541978637072294,46.71974592697247,6.394347095,-75.2576027
Concepción,Santander,68207,NA,NA,100,100,22.222222222222218,33.99215239486342,6.666666666666667,33.9921520186052,NA,NA,16.666666666666664,83.33333333333333,91.44969356813289,0,0,0,41.302794077444105,6.768836528,-72.69459425
Concordia,Antioquia,5209,NA,NA,100,100,13.480392156862745,14.560900235448155,0,14.560897362123024,NA,NA,0,53.92156862745098,57.582714794483515,0,0,0,30.867779619476856,6.053278216,-75.88983260500001
Concordia,Magdalena,47205,NA,NA,78.57142857142857,84.06591294305602,10.204081632653061,30.825769848407873,3.296703296703297,30.82576960960497,NA,NA,14.28571428571429,42.857142857142854,80.69426987080396,0,0,0,31.34554757326454,10.246662174999999,-74.808356965
Condoto,Chocó,27205,NA,NA,100,100,11.111111111111109,16.727679543302603,3.0303030303030303,16.727679449812,NA,NA,16.666666666666664,50,73.53214009672404,0,0,0,33.733445495282496,5.085693662375,-76.57792555125
Confines,Santander,68209,NA,NA,100,100,41.666666666666664,55.41752202245556,10,55.4175203969975,NA,NA,16.666666666666668,100,100,0,0,0,47.61371412325353,6.35732749,-73.24055388
Consaca,Nariño,52207,NA,NA,97.43589743589743,96.11162002987561,51.972386587771204,52.5760114878569,1.0769230769230769,28.86401630935933,NA,NA,8.974358974358976,65.38461538461539,70.87930429827418,0,0,0,40.78462148687593,1.2205288365,-77.4790211075
Contadero,Nariño,52210,NA,NA,71.96969696969697,70.41654964542515,55.99603994490358,58.265730795555115,4.707792207792208,16.531459904239412,NA,NA,13.825757575757574,52.651515151515156,71.03038088510073,0,0.9580193381118429,0.4755634981664582,35.6683819899837,0.9186250203333333,-77.52468199666666
Contratación,Santander,68211,NA,NA,100,100,20,38.239425037501434,0,38.239423765594644,NA,NA,0,80,95.0574031142891,20,4.017571103770752,1.9943336133561906,41.75533935171977,6.297438467,-73.52340949500001
Convención,Norte de Santander,54206,NA,NA,71.42857142857143,67.82669312027456,22.448979591836732,34.09904753250269,9.523809523809524,34.099046825752154,NA,NA,28.57142857142857,85.71428571428571,96.78266931202745,0,0,0,37.8541349813397,8.468918,-73.337638
Copacabana,Antioquia,5212,NA,NA,100,100,5.581095041322314,27.925924380786718,0.013061650992685477,27.92592433890369,NA,NA,0.5681818181818177,22.84090909090909,79.19815171832298,11.136363636363637,8.475673322480725,4.207348113138504,32.72242807022714,6.3386985445,-75.5041645975
Coper,Boyacá,15212,NA,NA,96.66666666666667,98.42127095959876,73.33333333333333,74.47402671953166,11.11111111111111,23.42207970172751,NA,NA,13.333333333333334,80,91.08757985434826,0,0,0,46.99650254554093,5.474983018,-74.04546072
Córdoba,Bolívar,13212,NA,NA,95.45454545454545,99.11324283155358,57.02479338842976,62.34099465894056,5.454545454545454,24.681989169461584,NA,NA,9.090909090909088,54.54545454545454,87.90069107941994,0,0,0,42.90680281491713,9.479199413,-74.90806187466667
Córdoba,Nariño,52215,NA,NA,68.10344827586206,69.48317737346733,76.15933412604043,78.3865353660204,50.61576354679803,56.77307061608372,NA,NA,16.810344827586206,63.79310344827586,77.50960113786019,0,0,0,41.922915821403954,0.8629583567500001,-77.5286008875
Córdoba,Quindío,63212,NA,NA,99.12280701754386,96.33720507996095,42.774699907663894,44.54681996956437,0.35561877667140823,16.820228433547793,NA,NA,4.385964912280701,60.526315789473685,72.2146968207825,2.631578947368421,0.7408299781966864,0.367750088085035,39.05806759017718,4.392485449,-75.68786636
Corinto,Cauca,19212,NA,NA,90.9090909090909,92.6920256377936,54.54545454545455,67.5651208680496,0,35.13024133549202,NA,NA,0,36.36363636363637,83.6547897261805,0,0,0,40.065536818663375,3.176189447857143,-76.24721817142857
Coromoro,Santander,68217,NA,NA,75,85.44030015157233,62.5,65.74715906482825,0,31.494316853548053,NA,NA,0,100,100,0,0,0,42.15340538330915,6.267144403,-73.05950677999999
Corozal,Sucre,70215,62.416666666666664,92.52495009980039,88.75,89.39604885552974,73.75,76.9232790550456,20,53.846554673448736,1,98.73417721518987,5,90,95.4822052315209,0,2.2245875,1.1042915016334136,50.79398581192732,9.2352908329375,-75.287238486875
Corrales,Boyacá,15215,NA,NA,93.75,98.68419761067655,60.9375,69.62476226391048,10.714285714285714,39.249523728464744,NA,NA,18.75,87.5,91.24465090144174,0,0,0,46.49781165295007,5.828102208,-72.84479484
Cota,Cundinamarca,25214,NA,NA,27.272727272727277,32.40524352950978,69.6969696969697,85.52067236394458,0,56.56201707227976,NA,NA,0,36.36363636363637,97.55899179212145,6.060606060606061,4.854326119373424,2.4097011602291123,29.351011114116293,4.812987769,-74.10272646
Cotorra,Córdoba,23300,NA,NA,88.88888888888889,94.680393009325,11.555555555555555,21.455316852148535,1.1111111111111112,21.455316422593746,NA,NA,4.999999999999999,47.22222222222222,78.49476478275284,0,0,0,31.67347749290947,9.047266178428572,-75.78525752142858
Covarachía,Boyacá,15218,NA,NA,50,61.1811390172242,83.33333333333333,90.83440551668293,0,72.50321621993226,NA,NA,0,100,100,0,0,0,38.81959495762792,6.515469706999999,-72.75690427500001
Coveñas,Sucre,70221,NA,NA,94.44444444444444,94.2709376546008,30.555555555555557,33.436773184829484,0,33.43677236165772,NA,NA,0,72.22222222222223,86.46414471339054,0,0,0,37.399461615913005,9.389444070833333,-75.67473699333334
Coyaima,Tolima,73217,NA,NA,97.22222222222223,98.5465763948787,47.47685185185185,53.41474311236745,11.328976034858385,48.23860106746259,NA,NA,13.333333333333334,84.87654320987654,94.01471893020798,9.51388888888889,2.5,1.2410070424667645,46.31334883667798,3.7530830186666666,-75.08991458333333
Cravo Norte,Arauca,81220,NA,NA,92,76.3545703659804,9.44,14.149445560071154,5.666666666666666,14.14944508798435,NA,NA,43.99999999999999,52,60.60186141771122,0,0,0,32.2011403645845,6.303912752,-70.20428555
Cuaspud,Nariño,52224,5,99.40119760479041,78.75,79.65383689360975,55.208333333333336,61.38960024770815,1.1111111111111112,35.64933031020048,2,97.46835443037975,3.75,70.13888888888889,84.98244220219618,4.166666666666666,1.3124115258362565,0.6514847784709387,42.25463841797838,0.862978103,-77.72894683
Cubará,Boyacá,15223,NA,NA,77.77777777777777,87.0126589418836,59.25925925925926,65.04672252078389,8.333333333333332,30.09344471116822,NA,NA,11.11111111111111,66.66666666666666,89.34787726811196,0,0,0,41.58013347680651,6.99783266525,-72.0587985125
Cubarral,Meta,50223,NA,NA,100,100,50,45.14238035014725,33.33333333333333,45.142378090739484,NA,NA,37.5,100,100,12.5,4.166666666666666,2.0683450707779407,53.15552049281138,3.7863413195,-73.847983935
Cucaita,Boyacá,15224,NA,NA,83.33333333333333,92.41272257050109,47.22222222222222,52.56590130119962,33.333333333333336,52.56589948296552,NA,NA,16.666666666666668,88.88888888888889,95.1548838212713,5.5555555555555545,1.1111111111111112,0.5515586855407844,46.9814706808749,5.544451559,-73.45433765
Cucunubá,Cundinamarca,25224,NA,NA,83.33333333333333,85.49082945018077,12.499999999999998,17.70115558033293,0,17.70115478781843,NA,NA,0,49.99999999999999,80.00726118919603,8.333333333333332,4.500076409460667,2.233850606311696,31.281803627468065,5.249767987,-73.76621533
Cúcuta,Norte de Santander,54001,23.848214285714285,97.14392643284859,60.5377731887799,59.987847255367186,56.39630978169755,62.4864400696662,10.6256538302643,39.040463399193705,3.8363095238095237,95.14391199517782,6.353182026795348,70.454289537001,89.02524885134062,5.977475297092867,1.443307876815821,0.7164620958304749,41.80682554436505,7.983529295969231,-72.49179050892307
Cucutilla,Norte de Santander,54223,NA,NA,93.05555555555556,86.20843530701703,19.212962962962962,23.178518131341296,1.1904761904761905,23.178517278235677,NA,NA,19.444444444444443,62.5,80.03450521886815,0,0,0,34.98408161915142,7.539238,-72.77297
Cuítiva,Boyacá,15226,NA,NA,61.111111111111114,65.10818203600297,61.11111111111111,63.13980103487629,10,44.70969925870297,NA,NA,11.111111111111112,100,100,0,0,0,38.780119673110235,5.590313349500001,-72.93899114
Cumaral,Meta,50226,NA,NA,95.83333333333333,94.3420391827989,46.78819444444444,49.715247694825266,0.4166666666666667,24.57286916523418,NA,NA,2.0833333333333335,65.625,76.36632579396449,2.0833333333333335,2.0833333333333335,1.0341725353889706,39.900149893746516,4.250733367,-73.393972012
Cumaribo,Vichada,99773,NA,NA,98.95833333333333,99.10714645180299,46.2508608815427,46.010802856421364,15.454545454545453,19.01620403162768,NA,NA,24.242424242424246,53.125,64.22748536019397,5.729166666666667,1.5314865454490312,0.7602342353381378,41.92077052328528,4.476355685470589,-69.57572781352941
Cumbal,Nariño,52227,NA,NA,95.83333333333334,99.19955787888938,46.28673094582185,57.05311933961903,15.555555555555554,42.737491554609306,NA,NA,23.674242424242426,77.02020202020202,89.4057386584328,4.166666666666666,1.550925921875,0.7698839965564537,45.68368933478608,0.8508789137142857,-77.83800071714286
Cumbitara,Nariño,52233,NA,NA,94.28571428571429,95.93320599480498,69.48979591836735,69.85456125777799,36.507936507936506,49.757601596897636,NA,NA,15.714285714285714,95.23809523809524,97.07389512969618,2.8571428571428568,0,0,49.584242013957265,1.7256364505555557,-77.58381426666666
Cunday,Tolima,73226,NA,NA,100,100,15.107709750566894,32.56982198223527,0.2380952380952381,32.56981474847672,NA,NA,2.3809523809523836,61.904761904761905,92.3551614037999,2.380952380952381,1.1904761904761905,0.5909557345079831,37.15626245148619,3.984796190285714,-74.67504098285714
Curillo,Caquetá,18205,NA,NA,71.42857142857143,71.65799771470624,22.448979591836732,21.124523875042463,9.523809523809524,21.124523309476988,NA,NA,28.57142857142857,85.71428571428571,85.659282198459,0,0,0,36.011716238012696,1.06895547825,-76.0151700075
Curití,Santander,68229,NA,NA,88.88888888888889,98.8548274794687,34.5679012345679,52.006661008559604,18.055555555555554,52.00665850038952,NA,NA,22.222222222222225,77.77777777777777,97.58595013777776,0,0,0,44.54179857316531,6.605106785,-73.06939052
Curumaní,Cesar,20228,NA,NA,86.66666666666667,92.33699608757996,58.51851851851852,64.17262756122838,16.666666666666664,46.25893970744414,NA,NA,11.111111111111112,90,95.7553527663764,6.666666666666667,6.568800608403005,3.260771126235239,46.75001557288832,9.226124206416667,-73.60061864916666
Dabeiba,Antioquia,5234,NA,NA,100,100,58.33333333333333,71.74659326665407,0,43.49318563540292,NA,NA,0,66.66666666666666,92.48392991120042,50,0,0,50.309565898992815,7.012038322222223,-76.17636809222222
Dagua,Valle del Cauca,76233,NA,NA,97.33333333333333,93.09331162125062,71.2,74.70354064416226,1.3793103448275863,36.75884844946897,NA,NA,7.333333333333334,65,79.98543843660863,8,3.9819040261476752,1.9766283755504115,46.015268258759285,3.6404187718214285,-76.68480650785715
Dibula,La Guajira,44090,NA,NA,91.66666666666667,90.45433288049209,65.06076388888889,70.98458570519024,50.138888888888886,70.98458450156973,NA,NA,26.041666666666668,88.54166666666667,98.27306251547651,8.333333333333334,3.5040932197389654,1.7394417452624384,54.06713656157012,11.23801416,-73.33876697
Distracción,La Guajira,44098,NA,NA,100,100,70.83333333333333,72.38011438547773,4.545454545454546,17.140342911526105,NA,NA,8.333333333333334,58.33333333333333,74.90623088041,0,0,0,45.225010967140335,10.88193663888889,-72.90198839444444
Dolores,Tolima,73236,NA,NA,93.75,95.39603097169874,50.86805555555556,56.664528894952554,16.03174603174603,42.219370660291354,NA,NA,21.875,95.83333333333333,99.31974599359306,0,0,0,46.767475858291924,3.6204099623333335,-74.81193478666667
Don Matías,Antioquia,5237,NA,NA,75,75.7103710761066,9.72222222222222,11.781851249551739,1.5151515151515151,11.781850655802902,NA,NA,8.333333333333337,41.666666666666664,58.615587060410945,8.333333333333332,7.372906088350255,3.659931351635501,27.428304899705648,6.5175415634,-75.296180364
Dosquebradas,Risaralda,66170,NA,NA,93.75,93.75,56.130930236678005,64.586617035686,3.7454212454212454,37.0428727775537,NA,NA,7.682291666666666,80.3505291005291,93.0923160387784,4.2038690476190474,2.625710396303269,1.3034100373162225,44.05806620560719,4.833662528176471,-75.66663024882352
Duitama,Boyacá,15238,30,96.40718562874252,54.70383275261324,56.421765514898134,65.66348455215561,70.6163056162498,1.7310454788174154,31.43804394640227,9.5,87.9746835443038,9.259396545333235,54.33316035288013,85.23122508087812,19.148936170212767,7.377428685072891,3.6621763813887123,39.896073756378655,5.8121230165,-73.045285475
Durania,Norte de Santander,54239,NA,NA,96.42857142857143,93.97705129936527,8.928571428571429,8.50919309459345,5.555555555555555,8.50919199140137,NA,NA,42.85714285714286,46.42857142857143,46.4747361719368,3.571428571428571,1.1904761904761905,0.5909557345079831,32.22838670552009,7.720239734,-72.659145406
Ebéjico,Antioquia,5240,NA,NA,100,100,54.437869822485204,59.844155074460474,1.282051282051282,19.68830986600521,NA,NA,3.8461538461538436,38.46153846153847,79.41870680927387,3.8461538461538463,2.6487663280116114,1.3148550667644967,41.865372932769205,6.310625977166667,-75.76141899166666
El Águila,Valle del Cauca,76243,NA,NA,100,100,75,84.22909834234821,50,84.22909675777791,NA,NA,25,100,100,0,0,0,57.657190758395295,4.914341323571429,-76.04409449571428
El Bagre,Antioquia,5250,NA,NA,50,62.32401407537236,47.82986111111111,58.49778534402267,2.083333333333333,37.74667782630484,NA,NA,8.333333333333334,75,92.87723847877837,4.166666666666667,4.9588259509555535,2.461575171001117,34.26173722974581,7.59427715475,-74.72749794333333
El Banco,Magdalena,47245,NA,NA,97.33333333333333,99.25034929855813,13.78924319727891,45.82525416260387,6.23015873015873,45.825253537374124,NA,NA,28.523809523809522,58.57142857142857,87.96049607927083,0,0.6666666666666666,0.33093521132447057,39.861970434039364,9.10576320873913,-74.01415216826086
El Cairo,Valle del Cauca,76246,NA,NA,93.33333333333333,98.06602120189876,11.111111111111112,30.501981183262327,4.761904761904762,30.50198084640094,NA,NA,33.333333333333336,53.333333333333336,86.3431529759646,0,0,0,37.34401556674014,4.771677432500001,-76.19738465
El Calvario,Meta,50245,NA,NA,50,50,100,100,NA,NA,NA,NA,0,NA,NA,0,0,0,37.5,4.3641246635,-73.70283154750001
El Cantón del San Pablo,Chocó,27135,NA,NA,83.33333333333334,94.46658475183239,16.666666666666664,50.77117334282568,0,50.77117320630514,NA,NA,0,66.66666666666666,91.93345983651326,0,0,0,36.712534963439815,5.334413642,-76.71887447166667
El Carmen,Norte de Santander,54245,NA,NA,97.36842105263158,96.17459163765733,6.509695290858725,21.57391410699039,3.982930298719772,21.57391396064317,NA,NA,50,31.57894736842105,76.72099057550004,0,0,0,34.90086275734353,8.649584227333333,-73.42031463666666
El Carmen de Atrato,Chocó,27245,NA,NA,72.72727272727273,66.48291387548397,6.6115702479338845,26.810429568131738,2.1645021645021645,26.810429335734,NA,NA,18.181818181818176,36.36363636363637,76.78172569113484,0,2.5436558727509544,1.2626779406783517,28.175472966667563,5.847510556571429,-76.17646389
El Carmen de Bolívar,Bolívar,13244,NA,NA,100,100,3.123585332729742,20.20006752382759,1.0175763182238668,20.20006748762131,NA,NA,21.276595744680847,19.148936170212767,75.48100071894893,2.127659574468085,2.127659574468085,1.0561762063546931,31.414477923992237,9.705581852882354,-75.18755541058823
El Carmen de Chucurí,Santander,68235,NA,NA,100,100,30.10204081632653,48.781515441091244,1.6483516483516485,48.78151486039051,NA,NA,10.714285714285715,75,92.12659567562588,17.857142857142858,8.928571428571429,4.432168008809874,44.50824287183683,6.6706045666666665,-73.61348697333334
El Carmen de Viboral,Antioquia,5148,NA,NA,98.55072463768116,98.7591071216366,19.06243436252888,28.121511667965844,2.644456992283079,28.121509288681615,NA,NA,11.231884057971016,67.02898550724638,86.68056700131434,5.797101449275362,0.712547342995169,0.3537105082991943,38.08573005901791,6.071094997,-75.336367974
El Castillo,Meta,50251,NA,NA,93.75,97.99409647718356,21.09375,52.34815201443303,15.833333333333332,52.34815163232225,NA,NA,56.25,75,89.32457503652866,0,0,0,45.599446078316234,3.5993070512500003,-73.8570244375
El Cerrito,Valle del Cauca,76248,NA,NA,97.91666666666667,99.39922695646331,7.777777777777777,33.24018999302653,0.7246376811594203,33.240189845268446,NA,NA,6.25,34.58333333333333,88.85614447295175,0,0,0,33.522543352852615,3.6592118857,-76.215430081
El Charco,Nariño,52250,NA,NA,100,100,57.75,58.314361977910664,0.4444444444444445,33.3029779967286,NA,NA,1.2499999999999998,90,93.21760222870036,0,0,0,44.39574010442056,2.41674539825,-78.10936040499999
El Cocuy,Boyacá,15244,NA,NA,54.54545454545454,81.06528855250271,20.661157024793393,52.32423030052159,12.727272727272727,52.32423008947076,NA,NA,36.36363636363637,72.72727272727273,94.90918664052822,27.27272727272727,30.54185099578967,15.161060870298218,45.29992163825431,6.407716232,-72.44472932
El Colegio,Cundinamarca,25245,35,95.80838323353294,78.33333333333333,78.871565611489,46.01111111111111,57.87776151118866,10.025252525252524,47.34720081005759,3,96.20253164556962,12,75,89.06443161143332,7.083333333333333,0.244897997629199,0.12156805589753798,43.11123108185862,4.5602372978,-74.438888612
El Copey,Cesar,20238,NA,NA,80,97.09634037436058,15.25,36.675026994564426,4.444444444444445,36.67502665213226,NA,NA,15.000000000000002,60,96.8633700335061,0,0,0,36.84810744062505,10.2387925775,-73.91865842
El Doncello,Caquetá,18247,NA,NA,100,100,15.96708579881657,35.29444589038873,6.639194139194139,35.29444563588723,NA,NA,20.192307692307693,60.57692307692308,87.12428567232547,0,0,0,38.70856747908688,1.679124,-75.284151
El Dorado,Meta,50270,NA,NA,87.5,94.90080803020675,37.5,45.94520611101814,0,45.94520011463628,NA,NA,0,100,100,0,0,0,42.349637649202265,3.714835985666667,-73.81548909
El Dovio,Valle del Cauca,76250,NA,NA,100,100,70.83333333333333,73.01610921605885,25,59.524160420069805,NA,NA,16.666666666666668,100,100,0,0,0,50.95600992873262,4.509348558285714,-76.30867290428571
El Espino,Boyacá,15248,NA,NA,88.63636363636363,82.43907152050872,27.892561983471076,29.912032744850233,0.6493506493506493,29.912030239069914,NA,NA,6.8181818181818175,65.9090909090909,76.80100932985238,0,0.6331976481230213,0.31432109623762466,34.54592557600273,6.483027406,-72.49700735
El Guamo,Bolívar,13248,NA,NA,66.66666666666666,87.94334286630009,33.33333333333333,74.60529220991663,0,74.60529212104655,NA,NA,0,100,100,33.33333333333333,53.29291179839634,26.454751542147996,52.32996652273585,10.040501886166666,-74.90195461333333
El Litoral del San Juan,Chocó,27250,NA,NA,100,100,12.5,37.67119743222108,0,37.67119733265972,NA,NA,0,50,97.52249964110182,0,0,0,36.153972461211175,4.281474539484848,-77.12970267666667
El Molino,La Guajira,44110,NA,NA,91.66666666666667,80.37816506965859,12.78951127435976,20.238495821497835,8.131737543502249,20.23849519972103,NA,NA,46.71717171717171,58.58585858585859,77.80101262784663,0,0,0,36.028056300596546,10.65350251,-72.92674334
El Paso,Cesar,20250,NA,NA,98.95833333333334,98.74298221588113,47.482638888888886,55.87021405207261,0.8454106280193238,41.160285254314836,NA,NA,6.25,79.16666666666667,93.0056262126213,0,0,0,43.142495101877856,9.676474014833333,-73.67639048166666
El Paujil,Caquetá,18256,NA,NA,100,100,12.499999999999998,22.80097197441332,4.545454545454546,22.8009715974338,NA,NA,25,58.33333333333333,79.0058832251697,8.333333333333332,1.8319555635838152,0.9093879023574742,37.569119988876864,1.455254251,-75.15928117
El Peñol,Nariño,52254,NA,NA,93.33333333333333,97.02219500146725,67.77777777777777,77.5101431365607,38.58585858585859,62.51690460642676,NA,NA,21.666666666666664,86.11111111111111,93.3205074343721,0,0,0,49.82914565405553,1.4744954,-77.43200671
El Peñón,Bolívar,13268,NA,NA,90.9090909090909,98.53497254443172,19.008264462809922,65.04073058515989,10.909090909090908,65.04073049081113,NA,NA,27.27272727272727,63.63636363636363,94.72963632685143,0,0,0,42.73098878604779,8.914029076714286,-73.92302697714285
El Peñón,Cundinamarca,25258,NA,NA,95.83333333333333,93.67081662834758,21.024659863945576,32.304545311359135,6.507936507936508,32.304543952262826,NA,NA,26.19047619047619,86.9047619047619,90.23926575501976,6.25,2.4953358208955225,1.2386917308203713,42.05998391335417,5.264409652,-74.31091919
El Peñón,Santander,68250,NA,NA,83.33333333333333,80.12982680237775,31.790123456790123,58.71123854690239,1.3888888888888888,58.71123810279763,NA,NA,5.555555555555558,77.77777777777777,90.90100018894721,0,0,0,39.05343132277937,6.097511186666667,-73.87938278166666
El Piñon,Magdalena,47258,NA,NA,94.44444444444444,95.84600480613963,55.55555555555556,60.48483609542477,0,20.96967175507386,NA,NA,0,44.44444444444444,77.90713633049954,0,0,0,40.22787557173058,10.351994713846153,-74.68629162384616
El Playón,Santander,68255,NA,NA,100,100,70.01972386587771,73.58632534241258,2.564102564102564,20.75897556794829,NA,NA,5.128205128205129,46.15384615384615,80.52508057501578,0,0,0,44.71047855461972,7.5320405652,-73.21896238400001
El Retén,Magdalena,47268,NA,NA,100,100,86.11111111111111,88.6978254779099,66.66666666666666,77.39565090596962,NA,NA,33.333333333333336,100,100,8.333333333333332,5.008333333333334,2.4861507750750853,57.482129154311764,10.624309474444445,-74.29532958333333
El Retorno,Guaviare,95025,NA,NA,87.5,98.02555009737729,62.5,71.10310853199854,50,71.10310848542265,NA,NA,25,100,100,12.5,6.571413907388838,3.2620683752134347,56.04201281017983,2.2218452695,-72.40927555166667
El Roble,Sucre,70233,NA,NA,84.84848484848484,75.58244946476296,69.6969696969697,71.57401736032612,50,57.36102564991402,NA,NA,16.666666666666668,68.18181818181819,85.46588476472867,0,0,0,45.83033848499166,9.081984989,-75.12450423571428
El Rosal,Cundinamarca,25260,NA,NA,50,50,61.11111111111111,74.96870663618938,6.666666666666667,49.937413190274015,NA,NA,8.333333333333332,83.33333333333333,98.68796641236001,16.666666666666664,7.055555555555555,3.50239765318398,36.68015946929273,4.846756317500001,-74.2585791475
El Rosario,Nariño,52256,NA,NA,90.9090909090909,95.85578724942602,49.87756351392715,60.04083362352719,14.242424242424242,40.06124927080925,NA,NA,19.6969696969697,72.72727272727273,89.52189503996928,0,0,0,44.003755121156225,1.779461392,-77.35156754857142
El Santuario,Antioquia,5697,32,96.16766467065868,62.5,63.86690349447689,41.84992283950617,56.986438459407246,4.583333333333333,35.47965714120489,8,89.87341772151899,9.49074074074074,48.95833333333333,83.96923541277442,0,0,0,37.90702455611257,6.137046858,-75.26584979
El Tablón de Gómez,Nariño,52258,NA,NA,92.5925925925926,98.12888100673284,20.16460905349794,27.503766049095724,1.8518518518518519,27.503764567465627,NA,NA,7.407407407407407,70.37037037037037,87.74054436940858,0,0,0,36.887274790996116,1.434771693,-77.05169458833333
El Tambo,Cauca,19256,NA,NA,95.45454545454545,99.84542538535891,15.656565656565656,60.22025833724947,3.3333333333333335,60.220258142936046,NA,NA,8.333333333333332,59.848484848484844,97.4117796884739,0,0,0,40.00942963975862,2.4508167495714286,-76.87231223857142
El Tambo,Nariño,52260,NA,NA,95.3125,99.87115250332586,81.25,98.59937715614204,73.33333333333333,98.13250287464979,NA,NA,37.5,91.66666666666667,99.93519799064418,0,0,0,58.97585710476828,1.407643422,-77.39020466
El Tarra,Norte de Santander,54250,NA,NA,28.57142857142857,9.462349044929935,14.285714285714285,33.68628743590336,0,33.686287292959214,NA,NA,0,57.14285714285714,91.89460880710699,0,0,0,21.367567753449116,8.593458767,-72.94451036125
El Zulia,Norte de Santander,54261,NA,NA,100,100,18.904761904761905,33.235873839242686,12.222222222222221,33.235873487207364,NA,NA,45.714285714285715,75.23809523809524,90.263260983348,0,0,0,43.23440908199598,8.098054379111112,-72.58296873444445
Elías,Huila,41244,NA,NA,100,100,47.333333333333336,52.28842798155077,38.148148148148145,52.28842671785335,NA,NA,29.999999999999996,86.66666666666667,96.53461519540666,0,0,0,50.088290120464144,2.0049465196666665,-75.95261364333334
Encino,Santander,68264,NA,NA,100,100,17.3241288625904,27.187395324975576,5.897435897435898,27.18739431511402,NA,NA,19.87179487179487,68.58974358974359,83.99338053484246,8.333333333333332,0,0,39.19974658315601,6.137402497,-73.09873802
Enciso,Santander,68266,NA,NA,100,100,100,100,NA,NA,NA,NA,0,NA,NA,0,0,0,50,6.6565985455,-72.703206525
Entrerrios,Antioquia,5264,NA,NA,95.83333333333333,96.51103567634766,19.444444444444443,30.644516775363787,12.121212121212121,30.644516243810592,NA,NA,25,58.33333333333333,79.21693981267006,33.33333333333333,7.253076252172636,3.6004474833978755,41.935606596873505,6.566481448,-75.5178008
Envigado,Antioquia,5266,13.25,98.41317365269461,50.95238095238095,48.40963687008227,69.74079936683815,79.46356181526484,0.1949317738791423,52.081643871586635,2.888888888888889,96.34317862165963,0.7518796992481203,85.26315789473684,94.65753784704512,15.657894736842103,7.285457297827076,3.6165215256777143,44.4488748153062,6.154151793043479,-75.54186751826087
Espinal,Tolima,73268,47.5,94.311377245509,68.0909090909091,62.17457697277146,50.302295684113865,63.39206333967519,16.07096607096607,59.32451320770389,13.5,82.91139240506328,13.515151515151516,90.9090909090909,95.21065048815827,21.21212121212121,5.787954058202552,2.873156699081383,45.68064652167752,4.183551483666666,-74.94836239666667
Facatativá,Cundinamarca,25269,73,91.25748502994013,90.55555555555556,91.43634351375435,52.507725180802105,66.57125627807102,0.8872608872608873,55.42834076855201,12,84.81012658227847,3.0341880341880336,88.2051282051282,98.7301871195364,0.6060606060606061,0.8105569028424111,0.40236272989899247,45.087250351532475,4.8275898938235295,-74.34223457529411
Falan,Tolima,73270,NA,NA,90,91.8096389718631,37.77777777777777,49.62268176344186,16.666666666666664,49.62268059036306,NA,NA,16.666666666666668,90,97.68129518213715,0,0,0,44.565884275323015,5.092842656666667,-74.97806721666667
Filadelfia,Caldas,17272,NA,NA,98.0392156862745,98.48670397982174,20.460880430603613,25.782678234821535,9.07843137254902,25.7826763290185,NA,NA,27.205882352941174,61.76470588235294,70.18921372474041,2.941176470588235,2.941176470588235,1.4600082852550171,38.03182480823058,5.282956215571429,-75.54873503142856
Filandia,Quindío,63272,NA,NA,98.0392156862745,95.59021374010219,27.191464821222606,37.84920730144358,0.24509803921568626,37.84920389519512,NA,NA,1.9607843137254906,76.47058823529412,82.70681792584742,0,0,0,38.186671823920506,4.690384218,-75.68336589
Firavitoba,Boyacá,15272,NA,NA,77.77777777777777,80.89188892052307,62.96296296296296,74.96529650756159,16.666666666666664,62.44794401165923,NA,NA,11.111111111111112,100,100,0,1.7834102258169937,0.885289859938453,45.89292561910331,5.66892216,-72.99336145
Flandes,Tolima,73275,NA,NA,98,99.44222556399885,67.8,79.32012527391693,34.81481481481482,65.53354150489771,NA,NA,14,86.66666666666667,97.46960740188713,2,1.6666666666666667,0.8273380283111764,50.402455351174076,4.2350967336,-74.834463626
Florencia,Caquetá,18001,82.46190476190476,90.12432278300541,50.992063492063494,47.2748753665961,46.70613495088288,57.1394464891522,8.243874439253727,45.45020377285745,4.0095238095238095,94.92465340566606,16.528598978532223,82.50057315477876,92.36554119307479,1.898828067052366,1.99918005620733,0.9923986115649596,39.64292946583756,1.6759983439090909,-75.54067328181819
Florencia,Cauca,19290,NA,NA,100,100,20,21.962838207843248,0,21.962836509775467,NA,NA,0,80,90.86091248827586,0,0,0,37.52943188146537,1.705940811,-77.06785136333333
Floresta,Boyacá,15276,NA,NA,75,79.37720329024677,35,34.83134977479954,5.555555555555555,34.83134845503954,NA,NA,20,90,89.63142286085882,0,0,0,39.03595740740552,5.858413345000001,-72.931329515
Florián,Santander,68271,NA,NA,100,100,23.809523809523807,41.18499125024081,0,41.18498832680825,NA,NA,0,78.57142857142857,91.96006392261017,0,0,0,39.593273413982125,5.800879658,-73.92688180666667
Florida,Valle del Cauca,76275,NA,NA,90.625,98.11569558027156,20.963541666666664,34.26048002814094,1.25,34.2604793683547,NA,NA,9.375,71.875,93.04760689783195,33.33333333333333,16.666666666666664,8.273380283111763,43.43506404145663,3.30445631,-76.24231193230769
Floridablanca,Santander,68276,NA,NA,80,81.17672610409355,83.6574074074074,88.5946063060179,2.083333333333333,54.37842423771886,NA,NA,1.3888888888888888,86.66666666666666,95.2225745020021,10,9.76673853491183,4.8482365215028445,46.06209882600622,7.06555413225,-73.08299921416666
Fomeque,Cundinamarca,25279,NA,NA,100,100,13.55613425925926,22.973814833392225,5.416666666666666,22.973814176600893,NA,NA,26.041666666666668,60.763888888888886,80.72593191371826,0,0,0,37.22528211169018,4.4940428919999995,-73.8968606
Fonseca,La Guajira,44279,NA,NA,85.22727272727273,87.19248410783841,60.46625344352617,67.94089273480512,22.411483253588518,48.70542787977863,NA,NA,18.522727272727273,82.9090909090909,90.95686993805084,4.166666666666666,3.2404597339791126,1.6085733402792228,45.26488478091374,10.865873916153847,-72.82609976846155
Fortul,Arauca,81300,NA,NA,94.44444444444444,94.09415643323479,64.35185185185185,68.79107720789379,0.9803921568627451,37.582153089274186,NA,NA,4.166666666666666,69.44444444444444,82.26776493446876,1.3888888888888888,0.6944444444444444,0.34472417846299014,43.60205044397962,6.7165055675,-71.61896749875
Fosca,Cundinamarca,25281,NA,NA,96.2962962962963,93.29956609472839,33.65054869684499,30.866707037011082,25.56980056980057,30.86670441191128,NA,NA,32.407407407407405,64.81481481481481,80.88039316576926,0,0,0,41.61686673478844,4.3416970325,-73.92594309
Francisco Pizarro,Nariño,52520,NA,NA,100,100,9,18.424781572164587,4.2105263157894735,18.424781462328983,NA,NA,30.000000000000004,50,77.1794347069056,0,0,0,35.34679478135088,2.1213133256,-78.597814004
Fredonia,Antioquia,5282,NA,NA,87.5,78.4224396259747,31.25,35.317212165670675,2.272727272727273,35.317209192648235,NA,NA,12.5,79.16666666666666,84.50462866712513,4.166666666666666,0,0,37.73639464225737,5.900460017333334,-75.68952486833334
Fresno,Tolima,73283,NA,NA,96.81818181818181,96.83887373148886,55.64906954517344,59.839220609324975,14.031801531801532,49.799023054720806,NA,NA,14.253246753246753,88.14935064935065,94.62504886180366,7.532467532467533,4.9411919530346555,2.4528216047584457,47.79727585291283,5.190927642166667,-75.06924883333333
Frontino,Antioquia,5284,NA,NA,94.73684210526315,98.79379636347576,54.57063711911357,61.93998224981845,4.093567251461988,23.87996429532107,NA,NA,15.789473684210526,47.368421052631575,81.09001052529324,15.789473684210526,3.991926652659867,1.9816036355846691,44.442703173548175,6.742219459875,-76.2287173875
Fuente de Oro,Meta,50287,NA,NA,100,100,30.3030303030303,46.31443022264806,20,46.314429276437764,NA,NA,39.3939393939394,90.9090909090909,98.22251206621212,4.545454545454546,2.0256036298817044,1.0055153479717747,48.42905240165716,3.3692396633333335,-73.55576359222222
Fundación,Magdalena,47288,26,96.88622754491017,50.98039215686275,58.99365031750035,41.17647058823529,50.312579448647725,6.25,25.468869067456097,15,81.0126582278481,23.52941176470588,55.88235294117648,73.41515532264063,0,0,0,36.60451349393856,10.4395044275,-74.02913028125
Funes,Nariño,52287,NA,NA,83.33333333333333,85.21841001463659,12.92361111111111,22.490116133858002,3.6904761904761907,22.49011428405457,NA,NA,16.25,54.58333333333333,81.28253429995408,0,0,0,32.706528583336606,0.9704142035000001,-77.45321828
Funza,Cundinamarca,25286,69,91.73652694610779,41.666666666666664,44.8559670781893,55.833333333333336,70.37646129912672,1.3157894736842104,55.56469102461891,14.75,81.32911392405063,3.3333333333333326,85,97.30830308139528,18.75,2.2727272727272725,1.1281882204243314,39.219476531496994,4.7409332558,-74.222212244
Fúquene,Cundinamarca,25288,NA,NA,87.5,93.70041500710221,56.25,65.6664411920761,0,31.332882058738303,NA,NA,0,50,90.26555931633617,0,6.155210599618154,3.055463880796882,41.58730093979649,5.412996408666666,-73.77421275333333
Fusagasugá,Cundinamarca,25290,29.516666666666666,96.46506986027944,51.515151515151516,50.75827357751779,55.336839469070874,67.88070909132553,0.12368583797155226,49.52682764553126,10.416666666666666,86.81434599156118,0.8264462809917358,86.75324675324676,96.26088812287645,31.25,8.073384289034594,4.007650703692986,42.372791795150064,4.331613254,-74.42574633142857
Gachala,Cundinamarca,25293,NA,NA,68.22660098522167,49.47648914789526,11.74015384988716,28.599061507058998,3.2430213464696225,28.59906129010058,NA,NA,19.211822660098527,49.507389162561566,80.92305474054108,14.039408866995073,3.5098524061133936,1.742300621602256,30.019923208585872,4.70698507325,-73.48941565999999
Gachancipá,Cundinamarca,25295,NA,NA,89.28571428571429,86.60646050895771,4.336734693877551,9.743437442274319,0.7936507936507936,9.74343721263872,NA,NA,10.71428571428571,25,55.008216416385224,10.714285714285714,2.4630951607142855,1.2226873762848942,26.898960736948226,4.983064422,-73.88293526000001
Gachantivá,Boyacá,15293,37,95.5688622754491,88.88888888888889,80.90751253389516,50,51.664059922206306,10,27.49608635882402,1,98.73417721518987,16.666666666666668,91.66666666666666,96.19593843272663,8.333333333333332,5.514100190506856,2.7372148677145343,49.33022992953813,5.751891082,-73.54909239
Gachetá,Cundinamarca,25297,NA,NA,100,100,21.846153846153847,24.306641662397496,10,24.30664045349752,NA,NA,20,65.38461538461539,71.55439719684841,10,7.831897784699487,3.887776122676766,39.5283165452174,4.832468937,-73.605326225
Galán,Santander,68296,NA,NA,100,100,75,75.10140491215046,0,50.20280303735819,NA,NA,0,100,100,0,0,0,47.736491355650045,6.638415002,-73.28776473
Galapa,Atlántico,8296,NA,NA,100,100,60,65.40466932585167,0,30.809338611775257,NA,NA,0,80,97.11463478553853,0,0,0,44.45108970169281,10.89739479,-74.89828957
Galeras,Sucre,70235,NA,NA,90,90.7176747191397,77.92592592592592,80.39148159320312,45.18518518518518,60.782962074234774,NA,NA,18.333333333333336,83.33333333333333,93.69603226802566,0,0,0,49.40688099680674,9.123120030666666,-74.94823120555556
Gama,Cundinamarca,25299,NA,NA,95,99.42869220049272,34.77777777777777,43.76153305815742,18.888888888888886,43.76153133037436,NA,NA,26.666666666666664,80,95.96716744707302,0,0,0,44.95370236718695,4.7397796495,-73.58416736999999
Gamarra,Cesar,20295,NA,NA,92.85714285714286,96.95893453221629,11.688311688311689,19.642718774885342,0,19.642717783060935,NA,NA,0,46.753246753246756,65.09318027080045,0,0,0,30.272139534236672,8.310554494,-73.74367546714285
Gambita,Santander,68298,NA,NA,100,100,21.875,28.92745238771766,10.714285714285714,28.92745202329238,NA,NA,25,75,92.34293160193823,12.5,1.0087761423391841,0.5007593187661532,42.53356410591336,5.906702198,-73.36452144500001
Gameza,Boyacá,15296,NA,NA,66.66666666666667,66.66666666666667,66.66666666666667,76.53189830206088,0,64.79784390547341,NA,NA,0,100,100,0,0,0,41.8059301486722,5.802337805,-72.80552935
Garagoa,Boyacá,15299,50,94.01197604790418,56.41025641025641,56.7357277753313,47.008547008547005,53.80030482733666,0,30.700454135232768,8,89.87341772151899,0,65.38461538461539,76.65913970304527,7.6923076923076925,0.7692307692307692,0.38184832075900443,36.78736757411629,5.083243463,-73.36442756
Garzón,Huila,41298,19,97.72455089820359,76,77.25799476624654,68.6046485260771,73.75866835199875,7.7941176470588225,34.39666984342811,4,94.9367088607595,10.69047619047619,76.42857142857143,88.72152608189768,14.62962962962963,4.500000000000001,2.2338126764401767,45.179092217343275,2.164907688,-75.60225522294118
Génova,Quindío,63302,NA,NA,87.5,84.4559585492228,18.75,20.921367016564204,7.142857142857142,20.921364967894903,NA,NA,25,75,81.34715025906736,12.5,4.166666666666666,2.0683450707779407,38.07748588228692,4.207477888,-75.78981661
Gigante,Huila,41306,NA,NA,98.98989898989899,99.25921586906342,51.50290161978474,56.39368211066784,8.556998556998558,34.59052127045483,NA,NA,10.851370851370852,85.1948051948052,95.2480561250248,2.2222222222222223,1.4156766601897857,0.7027458820605411,45.212510980891885,2.3653186666666666,-75.510889546
Ginebra,Valle del Cauca,76306,NA,NA,100,100,16.213017751479292,18.762954002546145,2.564102564102564,18.762952232410555,NA,NA,15.384615384615385,70.76923076923077,79.4815088536171,0,0,0,36.65231175687193,3.7271904108,-76.26368413
Giraldo,Antioquia,5306,NA,NA,87.5,89.97074784740072,12.5,14.591631333849056,0,14.591630620030664,NA,NA,0,50,66.86167934578653,0,0,0,29.2203689570033,6.6875796755,-75.95055192000001
Girardot,Cundinamarca,25307,22,97.36526946107784,68.4375,69.37037775242288,41.89583333333333,65.49622590305816,3.3333333333333335,53.99496706986448,5,93.67088607594937,4.999999999999999,75,95.28208515679249,12.916666666666666,5.273811086309524,2.617934679499767,42.497637851785726,4.3442607758000005,-74.804210696
Girardota,Antioquia,5308,NA,NA,100,100,42.81481481481482,66.33826811547253,6.507936507936508,49.50740205911315,NA,NA,21.11111111111111,60,93.38305691706451,4.444444444444445,4.0116939783313725,1.9914161917322983,45.20961311568854,6.384023219833334,-75.445330345
Girón,Santander,68307,18,97.84431137724552,69.64285714285714,71.39982032513358,66.15716245345875,74.23078675754243,20.86894586894587,54.90387599023941,4,94.9367088607595,9.78835978835979,89.81481481481481,94.09039627266367,3.317901234567901,2.000521084112583,0.9930643015947849,44.689061423461354,7.08331358625,-73.18913868875
Gómez Plata,Antioquia,5310,NA,NA,97.91666666666667,99.36239957618858,52.25694444444444,60.261857279874484,0.36231884057971014,20.523714378641436,NA,NA,2.0833333333333313,20.833333333333332,60.86346029541008,8.333333333333332,2.3848897970518252,1.1838660134593793,39.98298606172851,6.74162121125,-75.1973074025
González,Cesar,20310,NA,NA,97.36842105263158,94.73127467857194,6.432748538011695,8.306185046533777,3.007518796992481,8.306184494534804,NA,NA,36.8421052631579,36.84210526315789,46.65940621669249,0,0,0,30.017251350522702,8.413416854,-73.371038038
Gramalote,Norte de Santander,54313,NA,NA,100,100,14.285714285714285,31.6127809699204,0,31.612779426392557,NA,NA,0,57.14285714285714,79.6866278651165,14.285714285714285,0.3004120714833028,0.14912539854112314,36.13302109266791,7.897589507999999,-72.7951869475
Granada,Antioquia,5313,NA,NA,100,100,56.94444444444444,58.53900680377562,6.0606060606060606,17.078012756236337,NA,NA,12.5,58.33333333333333,73.52493208739628,20.833333333333336,6.881334378864478,3.4159137702957905,45.7339516792165,6.118218599666666,-75.12377608666667
Granada,Cundinamarca,25312,NA,NA,95.45454545454545,98.3656861725172,57.85123966942149,76.66422856912078,53.63636363636363,76.6642284470656,NA,NA,38.63636363636363,81.81818181818181,95.58032040637201,0,0,0,54.36426630571691,4.512080953333333,-74.35853145666667
Granada,Meta,50313,NA,NA,99.1304347826087,99.59026258252273,51.00189035916824,64.53474992853147,0.4698304442549967,40.89124944692345,NA,NA,8.26086956521739,42.270531400966185,85.72034728721025,4.3478260869565215,1.4720882467469933,0.7307487525382285,42.37684507124992,3.477046678,-73.76348895
Guacamayas,Boyacá,15317,NA,NA,84.21052631578948,84.82050177822828,31.517389966143426,33.33777530804165,17.83625730994152,33.33777281816778,NA,NA,24.56140350877193,68.42105263157895,78.76885900734176,0,0,0,38.497615075076084,6.459666516,-72.500812
Guacarí,Valle del Cauca,76318,NA,NA,96.96969696969697,98.03699482759504,69.6969696969697,79.58230110638742,0,38.74690315561073,NA,NA,0,36.36363636363637,90.39307246630773,3.0303030303030307,0,0,44.50622744614547,3.7780688125833333,-76.30045690416667
Guachené,Cauca,19300,NA,NA,75,57.07789254194262,22.222222222222218,33.340331623251295,1.5151515151515151,33.34033079379488,NA,NA,8.333333333333332,75,83.95567575644917,0,0,0,32.40405518112274,3.1560454046190474,-76.39955832047619
Guachetá,Cundinamarca,25317,NA,NA,100,100,24.999999999999996,52.92386919805849,0,52.92386840901691,NA,NA,0,83.33333333333333,99.08967767307048,25,0,0,44.12244365495112,5.383741192,-73.68709822
Guachucal,Nariño,52317,NA,NA,90.84249084249085,97.47941876643269,61.97520428289659,67.38964271936298,12.564102564102564,42.931874066594034,NA,NA,12.637362637362637,92.3076923076923,98.14703569974664,0,0,0,46.42005398735047,0.98395409875,-77.715396205
Guadalajara de Buga,Valle del Cauca,76111,5.666666666666667,99.32135728542914,66.66666666666667,66.66666666666667,55.09259259259259,61.32421704138219,12.878787878787879,41.98632459632301,1.3333333333333333,98.31223628691983,22.222222222222225,100,100,0,0,0,44.209079433500285,3.88919747,-76.26604867473684
Guadalupe,Antioquia,5315,NA,NA,66.66666666666666,90.53940393521012,27.777777777777775,48.930466517631906,13.333333333333334,48.93046635167753,NA,NA,33.333333333333336,100,100,0,0,0,43.689180142177555,6.8259280656,-75.21470712600001
Guadalupe,Huila,41319,NA,NA,96.42857142857143,93.88541036678643,54.59183673469388,63.97456518904915,2.197802197802198,27.949129977587837,NA,NA,7.142857142857145,42.857142857142854,83.65736952577466,50,16.4324,8.157089649852347,50.72181331098771,2.014864004,-75.71616307125
Guadalupe,Santander,68320,NA,NA,100,100,25,26.08438468317146,0,26.084382471095978,NA,NA,0,100,100,0,0,0,41.007671334833766,6.2303193775,-73.41166448499999
Guaduas,Cundinamarca,25320,22,97.36526946107784,73.75,74.51371724585175,40.08,47.32922556990006,0.4619883040935672,29.772297539468603,6,92.40506329113924,3.5000000000000004,50,72.66730215266219,0,0.09207125183384444,0.04570442877381279,36.94489412952221,5.119157360333333,-74.60484331
Guaitarilla,Nariño,52320,NA,NA,86.66666666666667,92.3898474095559,54,60.30915167410303,1.1111111111111112,40.46372624505282,NA,NA,3.3333333333333326,75,89.78535495869713,0,0,0,41.57242210274525,1.134009667,-77.54781693000001
Gualmatán,Nariño,52323,NA,NA,94.16666666666667,95.37313853996493,35.27777777777778,40.908206310601024,1.1494252873563218,40.90820107445564,NA,NA,8.333333333333334,86.66666666666667,96.10891112456389,0,0,0,41.634920518811875,0.915566137,-77.57679306
Guamal,Magdalena,47318,NA,NA,100,100,57,59.28367006194859,4.444444444444445,18.567339946572,NA,NA,9.999999999999998,60.00000000000001,76.37327854896674,0,0,0,42.88113923260492,9.230307258,-74.17723163454545
Guamal,Meta,50318,NA,NA,94.44444444444444,97.21628691696142,31.790123456790123,46.89164371526142,1.3888888888888888,46.89163840774444,NA,NA,5.555555555555558,77.77777777777777,93.60341052894447,5.555555555555555,1.3888888888888888,0.6894483569259803,41.482002189635864,3.8483708845,-73.76014229
Guamo,Tolima,73319,NA,NA,97.82608695652173,97.68781507270364,51.40877461162065,56.20568273454088,24.521299956082565,47.446817929749244,NA,NA,18.699677938808374,79.80676328502416,90.53831647362678,2.1739130434782608,1.0778985507246377,0.5350718770055979,46.63668823160743,4.0516106543333334,-74.93236821555556
Guapi,Cauca,19318,NA,NA,100,100,35,47.803816980791325,0,47.80381525579389,NA,NA,0,90,94,0,0,0,42.43671063461739,2.5131320624,-77.72509085866666
